poi_id,name,name_clean,category,zone,latitude,longitude,address,source,source_url,confidence,notes,record_origin,validation_status,match_method,osm_type,osm_id,extracted_at
P-001,Mbak Kebab,mbak kebab,brand_reference,External/Ponorogo,,,Ponorogo/Jawa Timur,Instagram public,,medium,Bukan POI Sleman; referensi brand.,baseline,verified_baseline_only,baseline_reference,,,
P-002,Istanbul Kebab Turki House Moses,istanbul kebab turki house moses,direct_kebab_competitor,Depok,-7.778,110.386,"Mrican, Caturtunggal, Sleman",GoFood/public listing,,low,"Koordinat centroid manual, perlu validasi.",baseline,verified_baseline_only,baseline_reference,,,
P-003,Heybab Kebab Concat,heybab kebab concat,direct_kebab_competitor,Depok,-7.747,110.402,"Condongcatur, Depok, Sleman",GoFood/public listing,,low,"Koordinat centroid manual, perlu validasi.",baseline,verified_baseline_only,baseline_reference,,,
P-004,H Kebab,h kebab,direct_kebab_competitor,Depok,-7.775,110.389,"Jl. Affandi, Caturtunggal, Sleman",Facebook public post,,low,Koordinat centroid manual.,baseline,verified_baseline_only,baseline_reference,,,
P-005,Kebab Turkiyem UGM,kebab turkiyem ugm,direct_kebab_competitor,Depok,-7.772,110.38,Sekitar UGM,Waze/public map,,low,Koordinat centroid manual.,baseline,verified_baseline_only,baseline_reference,,,
P-006,Kebab Ajib Condong Catur,kebab ajib condong catur,direct_kebab_competitor,Depok,-7.7455,110.401,Condongcatur,Waze/public map,,low,Koordinat centroid manual.,baseline,verified_baseline_only,baseline_reference,,,
P-007,Morgans Kebab Pandega,morgans kebab pandega,direct_kebab_competitor,Ngaglik Selatan,-7.7557642,110.3763824,Pandega/Jakal bawah,Corner/Google Maps coordinate,,medium,Koordinat eksplisit dari sumber publik.,baseline,verified_baseline_only,baseline_reference,,,
P-008,Kebab Turki Baba Rafi Sendangadi,kebab turki baba rafi sendangadi,direct_kebab_competitor,Mlati,-7.745,110.36,Sendangadi/Mlati,public listing,,low,Koordinat centroid manual.,baseline,verified_baseline_only,baseline_reference,,,
P-009,Kebab Bosman Monjali,kebab bosman monjali,direct_kebab_competitor,Mlati,-7.7850401,110.379017,Monjali/Mlati,public listing + OpenStreetMap Overpass,https://overpass-api.de/api/interpreter,medium,Koordinat centroid manual. | Matched OSM node:9200943211.,baseline,matched_osm,direct_competitor_fuzzy,node,9200943211,2026-06-24T16:08:05.739952+00:00
P-010,Jogja City Mall,jogja city mall,mall/titik_keramaian,Mlati,-7.7533986,110.3605445,"Jl. Magelang, Mlati",public web + OpenStreetMap Overpass,https://overpass-api.de/api/interpreter,medium,Titik keramaian/retail. | Matched OSM way:608602428.,baseline,matched_osm,activity_support_fuzzy,way,608602428,2026-06-24T16:08:05.739952+00:00
P-011,Terminal Jombor,terminal jombor,transport/titik_keramaian,Mlati,-7.748,110.362,"Jombor, Mlati",public/BPS context,,medium,Titik traffic.,baseline,verified_baseline_only,baseline_reference,,,
P-012,Morgans Kebab Godean,morgans kebab godean,direct_kebab_competitor,Gamping,-7.78,110.325,Koridor Godean/Gamping,public listing,,low,Koordinat centroid manual.,baseline,verified_baseline_only,baseline_reference,,,
P-013,Kebab Bang Aji,kebab bang aji,direct_kebab_competitor,Gamping,-7.79,110.32,Gamping,public listing,,low,Koordinat centroid manual.,baseline,verified_baseline_only,baseline_reference,,,
OSM-0001,Griya Sentana,griya sentana,hotel,Mlati,-7.7853525,110.363624,,OpenStreetMap Overpass,https://overpass-api.de/api/interpreter,,"subcategory=tourism:hotel; flags: direct=false, food=false, demand=false, support=true; zone normalized from Depok/Mlati to Mlati",osm,osm_only,osm_only,node,492167658,2026-06-24T16:08:05.739952+00:00
OSM-0002,Super Indo,super indo,retail,Depok,-7.801858,110.3729741,,OpenStreetMap Overpass,https://overpass-api.de/api/interpreter,,"subcategory=shop:supermarket; flags: direct=false, food=false, demand=false, support=true",osm,osm_only,osm_only,node,897245281,2026-06-24T16:07:57.357772+00:00
OSM-0003,Hotel Trim Tiga,hotel trim tiga,hotel,Mlati,-7.7804558,110.3670381,,OpenStreetMap Overpass,https://overpass-api.de/api/interpreter,,"subcategory=tourism:hotel; flags: direct=false, food=false, demand=false, support=true; zone normalized from Depok/Mlati to Mlati",osm,osm_only,osm_only,node,1359116507,2026-06-24T16:08:05.739952+00:00
OSM-0004,SMP 6 Yogyakarta,smp 6 yogyakarta,school,Mlati,-7.7782549,110.3669962,,OpenStreetMap Overpass,https://overpass-api.de/api/interpreter,,"subcategory=amenity:school; flags: direct=false, food=false, demand=true, support=false; zone normalized from Depok/Mlati to Mlati",osm,osm_only,osm_only,node,1359366165,2026-06-24T16:08:05.739952+00:00
OSM-0005,,,marketplace,Mlati,-7.7830823,110.358983,,OpenStreetMap Overpass,https://overpass-api.de/api/interpreter,,"subcategory=amenity:marketplace; flags: direct=false, food=false, demand=false, support=true; zone normalized from Depok/Mlati to Mlati",osm,osm_only,osm_only,node,1360184919,2026-06-24T16:08:05.739952+00:00
OSM-0006,Rumah Makan Pring Sewu,rumah makan pring sewu,restaurant,Mlati,-7.7284566,110.3637196,,OpenStreetMap Overpass,https://overpass-api.de/api/interpreter,,"subcategory=amenity:restaurant; flags: direct=false, food=true, demand=false, support=false; zone normalized from Depok/Mlati/Ngaglik Selatan to Mlati",osm,osm_only,osm_only,node,1360229988,2026-06-24T16:09:35.619220+00:00
OSM-0007,SDIT Luqman Al-Hakim,sdit luqman al-hakim,school,Depok,-7.7968209,110.3908466,,OpenStreetMap Overpass,https://overpass-api.de/api/interpreter,,"subcategory=amenity:school; flags: direct=false, food=false, demand=true, support=false",osm,osm_only,osm_only,node,1360407136,2026-06-24T16:07:57.357772+00:00
OSM-0008,F. Hukum Univ. Janabadra',f. hukum univ. janabadra',university,Depok,-7.7963009,110.3914903,,OpenStreetMap Overpass,https://overpass-api.de/api/interpreter,,"subcategory=amenity:university; flags: direct=false, food=false, demand=true, support=false",osm,osm_only,osm_only,node,1360407160,2026-06-24T16:07:57.357772+00:00
OSM-0009,Kantin Calsita,kantin calsita,restaurant,Depok,-7.7637956,110.4100903,,OpenStreetMap Overpass,https://overpass-api.de/api/interpreter,,"subcategory=amenity:restaurant; flags: direct=false, food=true, demand=false, support=false",osm,osm_only,osm_only,node,1362917046,2026-06-24T16:07:57.357772+00:00
OSM-0010,2nd Experimental State Elementary Scool,2nd experimental state elementary scool,school,Mlati,-7.7729219,110.3718978,,OpenStreetMap Overpass,https://overpass-api.de/api/interpreter,,"subcategory=amenity:school; flags: direct=false, food=false, demand=true, support=false; zone normalized from Depok/Mlati to Mlati",osm,osm_only,osm_only,node,1517532161,2026-06-24T16:08:05.739952+00:00
OSM-0011,Asia Afrika,asia afrika,hotel,Mlati,-7.7900951,110.3638906,,OpenStreetMap Overpass,https://overpass-api.de/api/interpreter,,"subcategory=tourism:hotel; flags: direct=false, food=false, demand=false, support=true; zone normalized from Depok/Mlati to Mlati",osm,osm_only,osm_only,node,1640508693,2026-06-24T16:08:05.739952+00:00
OSM-0012,Indraloka,indraloka,hotel,Depok,-7.7795395,110.3752202,,OpenStreetMap Overpass,https://overpass-api.de/api/interpreter,,"subcategory=tourism:hotel; flags: direct=false, food=false, demand=false, support=true; zone normalized from Depok/Mlati to Depok",osm,osm_only,osm_only,node,1640515471,2026-06-24T16:08:05.739952+00:00
OSM-0013,HokBen,hokben,fast_food,Depok,-7.7576446,110.3817008,,OpenStreetMap Overpass,https://overpass-api.de/api/interpreter,,"subcategory=amenity:fast_food; flags: direct=false, food=true, demand=false, support=false; zone normalized from Depok/Mlati to Depok",osm,osm_only,osm_only,node,1646580099,2026-06-24T16:08:05.739952+00:00
OSM-0014,Grand Diamond Hotel Yogyakarta,grand diamond hotel yogyakarta,hotel,Depok,-7.782535,110.4234932,,OpenStreetMap Overpass,https://overpass-api.de/api/interpreter,,"subcategory=tourism:hotel; flags: direct=false, food=false, demand=false, support=true",osm,osm_only,osm_only,node,1652912717,2026-06-24T16:07:57.357772+00:00
OSM-0015,Villa Hanis,villa hanis,hotel,Mlati,-7.7327152,110.3771558,,OpenStreetMap Overpass,https://overpass-api.de/api/interpreter,,"subcategory=tourism:hotel; flags: direct=false, food=false, demand=false, support=true; zone normalized from Depok/Mlati/Ngaglik Selatan to Mlati",osm,osm_only,osm_only,node,1652969654,2026-06-24T16:09:35.619220+00:00
OSM-0016,Rumah Mertua,rumah mertua,hotel,Mlati,-7.7408272,110.3687121,,OpenStreetMap Overpass,https://overpass-api.de/api/interpreter,,"subcategory=tourism:hotel; flags: direct=false, food=false, demand=false, support=true; zone normalized from Depok/Mlati/Ngaglik Selatan to Mlati",osm,osm_only,osm_only,node,1654208565,2026-06-24T16:09:35.619220+00:00
OSM-0017,Kopi Jos,kopi jos,cafe,Mlati,-7.788877,110.365722,,OpenStreetMap Overpass,https://overpass-api.de/api/interpreter,,"subcategory=amenity:cafe; flags: direct=false, food=true, demand=false, support=false; zone normalized from Depok/Mlati to Mlati",osm,osm_only,osm_only,node,1697828567,2026-06-24T16:08:05.739952+00:00
OSM-0018,RM Padang AMBO,rm padang ambo,restaurant,Depok,-7.7659179,110.3794555,,OpenStreetMap Overpass,https://overpass-api.de/api/interpreter,,"subcategory=amenity:restaurant; flags: direct=false, food=true, demand=false, support=false; zone normalized from Depok/Mlati to Depok",osm,osm_only,osm_only,node,1748289552,2026-06-24T16:08:05.739952+00:00
OSM-0019,RM Padang Lima Sekawan,rm padang lima sekawan,restaurant,Depok,-7.7659964,110.3799566,,OpenStreetMap Overpass,https://overpass-api.de/api/interpreter,,"subcategory=amenity:restaurant; flags: direct=false, food=true, demand=false, support=false; zone normalized from Depok/Mlati to Depok",osm,osm_only,osm_only,node,1748289570,2026-06-24T16:08:05.739952+00:00
OSM-0020,Boulevard,boulevard,retail,Depok,-7.7661066,110.3804074,,OpenStreetMap Overpass,https://overpass-api.de/api/interpreter,,"subcategory=shop:supermarket; flags: direct=false, food=false, demand=false, support=true; zone normalized from Depok/Mlati to Depok",osm,osm_only,osm_only,node,1748290351,2026-06-24T16:08:05.739952+00:00
OSM-0021,Wara Computer,wara computer,retail,Depok,-7.7660791,110.3801783,,OpenStreetMap Overpass,https://overpass-api.de/api/interpreter,,"subcategory=shop:supermarket; flags: direct=false, food=false, demand=false, support=true; zone normalized from Depok/Mlati to Depok",osm,osm_only,osm_only,node,1748290458,2026-06-24T16:08:05.739952+00:00
OSM-0022,Jogja Chicken,jogja chicken,fast_food,Depok,-7.7662178,110.3807467,,OpenStreetMap Overpass,https://overpass-api.de/api/interpreter,,"subcategory=amenity:fast_food; flags: direct=false, food=true, demand=false, support=false; zone normalized from Depok/Mlati to Depok",osm,osm_only,osm_only,node,1748292226,2026-06-24T16:08:05.739952+00:00
OSM-0023,Ayam Goreng Pak Parman,ayam goreng pak parman,restaurant,Ngaglik Selatan,-7.7343365,110.3934698,,OpenStreetMap Overpass,https://overpass-api.de/api/interpreter,,"subcategory=amenity:restaurant; flags: direct=false, food=true, demand=false, support=false; zone normalized from Depok/Ngaglik Selatan to Ngaglik Selatan",osm,osm_only,osm_only,node,1769351619,2026-06-24T16:09:35.619220+00:00
OSM-0024,Kedai 24,kedai 24,cafe,Ngaglik Selatan,-7.7340935,110.3931782,,OpenStreetMap Overpass,https://overpass-api.de/api/interpreter,,"subcategory=amenity:cafe; flags: direct=false, food=true, demand=false, support=false; zone normalized from Depok/Ngaglik Selatan to Ngaglik Selatan",osm,osm_only,osm_only,node,1769351631,2026-06-24T16:09:35.619220+00:00
OSM-0025,Soto Pak Jamal,soto pak jamal,restaurant,Ngaglik Selatan,-7.7342307,110.3937036,,OpenStreetMap Overpass,https://overpass-api.de/api/interpreter,,"subcategory=amenity:restaurant; flags: direct=false, food=true, demand=false, support=false; zone normalized from Depok/Ngaglik Selatan to Ngaglik Selatan",osm,osm_only,osm_only,node,1769351633,2026-06-24T16:09:35.619220+00:00
OSM-0026,Siomay Kang Cepot,siomay kang cepot,fast_food,Ngaglik Selatan,-7.7341938,110.3952303,,OpenStreetMap Overpass,https://overpass-api.de/api/interpreter,,"subcategory=amenity:fast_food; flags: direct=false, food=true, demand=false, support=false; zone normalized from Depok/Ngaglik Selatan to Ngaglik Selatan",osm,osm_only,osm_only,node,1769352229,2026-06-24T16:09:35.619220+00:00
OSM-0027,Super Indo,super indo,retail,Depok,-7.7728342,110.4085831,,OpenStreetMap Overpass,https://overpass-api.de/api/interpreter,,"subcategory=shop:supermarket; flags: direct=false, food=false, demand=false, support=true",osm,osm_only,osm_only,node,1769415206,2026-06-24T16:07:57.357772+00:00
OSM-0028,Jimbaran Resto,jimbaran resto,restaurant,Ngaglik Selatan,-7.7310313,110.3811303,,OpenStreetMap Overpass,https://overpass-api.de/api/interpreter,,"subcategory=amenity:restaurant; flags: direct=false, food=true, demand=false, support=false; zone normalized from Depok/Mlati/Ngaglik Selatan to Ngaglik Selatan",osm,osm_only,osm_only,node,1769537992,2026-06-24T16:09:35.619220+00:00
OSM-0029,Iga Sapi Bali,iga sapi bali,restaurant,Ngaglik Selatan,-7.7310099,110.383584,,OpenStreetMap Overpass,https://overpass-api.de/api/interpreter,,"subcategory=amenity:restaurant; flags: direct=false, food=true, demand=false, support=false; zone normalized from Depok/Mlati/Ngaglik Selatan to Ngaglik Selatan",osm,osm_only,osm_only,node,1769538005,2026-06-24T16:09:35.619220+00:00
OSM-0030,Rumah Makan Khao Pad,rumah makan khao pad,restaurant,Ngaglik Selatan,-7.7328141,110.3848526,,OpenStreetMap Overpass,https://overpass-api.de/api/interpreter,,"subcategory=amenity:restaurant; flags: direct=false, food=true, demand=false, support=false; zone normalized from Depok/Mlati/Ngaglik Selatan to Ngaglik Selatan",osm,osm_only,osm_only,node,1769538007,2026-06-24T16:09:35.619220+00:00
OSM-0031,Rumah Palagan,rumah palagan,hotel,Ngaglik Selatan,-7.7320593,110.3832218,,OpenStreetMap Overpass,https://overpass-api.de/api/interpreter,,"subcategory=tourism:hotel; flags: direct=false, food=false, demand=false, support=true; zone normalized from Depok/Mlati/Ngaglik Selatan to Ngaglik Selatan",osm,osm_only,osm_only,node,1769538027,2026-06-24T16:09:35.619220+00:00
OSM-0032,Bebek Tepi Sawah Jogja,bebek tepi sawah jogja,restaurant,Ngaglik Selatan,-7.7306551,110.3800023,,OpenStreetMap Overpass,https://overpass-api.de/api/interpreter,,"subcategory=amenity:restaurant; flags: direct=false, food=true, demand=false, support=false; zone normalized from Depok/Mlati/Ngaglik Selatan to Ngaglik Selatan",osm,osm_only,osm_only,node,1769543339,2026-06-24T16:09:35.619220+00:00
OSM-0033,Rasane Seafood & Ikan Bakar,rasane seafood & ikan bakar,restaurant,Ngaglik Selatan,-7.7302118,110.3789859,,OpenStreetMap Overpass,https://overpass-api.de/api/interpreter,,"subcategory=amenity:restaurant; flags: direct=false, food=true, demand=false, support=false; zone normalized from Depok/Mlati/Ngaglik Selatan to Ngaglik Selatan",osm,osm_only,osm_only,node,1769543344,2026-06-24T16:09:35.619220+00:00
OSM-0034,Mr. Crab's,mr. crab's,restaurant,Ngaglik Selatan,-7.7344513,110.394133,,OpenStreetMap Overpass,https://overpass-api.de/api/interpreter,,"subcategory=amenity:restaurant; flags: direct=false, food=true, demand=false, support=false; zone normalized from Depok/Ngaglik Selatan to Ngaglik Selatan",osm,osm_only,osm_only,node,1769543347,2026-06-24T16:09:35.619220+00:00
OSM-0035,Bakso Pak Supri,bakso pak supri,restaurant,Depok,-7.7728708,110.3916278,,OpenStreetMap Overpass,https://overpass-api.de/api/interpreter,,"subcategory=amenity:restaurant; flags: direct=false, food=true, demand=false, support=false",osm,osm_only,osm_only,node,1769558717,2026-06-24T16:07:57.357772+00:00
OSM-0036,STMM MMTC,stmm mmtc,school,Mlati,-7.7511707,110.3618244,,OpenStreetMap Overpass,https://overpass-api.de/api/interpreter,,"subcategory=amenity:school; flags: direct=false, food=false, demand=true, support=false; zone normalized from Depok/Mlati to Mlati",osm,osm_only,osm_only,node,1844897315,2026-06-24T16:08:05.739952+00:00
OSM-0037,hartz chiken buffet,hartz chiken buffet,restaurant,Mlati,-7.7616672,110.3615705,,OpenStreetMap Overpass,https://overpass-api.de/api/interpreter,,"subcategory=amenity:restaurant; flags: direct=false, food=true, demand=false, support=false; zone normalized from Depok/Mlati to Mlati",osm,osm_only,osm_only,node,1847521134,2026-06-24T16:08:05.739952+00:00
OSM-0038,restoran kelapa gading,restoran kelapa gading,restaurant,Mlati,-7.7496428,110.3618375,,OpenStreetMap Overpass,https://overpass-api.de/api/interpreter,,"subcategory=amenity:restaurant; flags: direct=false, food=true, demand=false, support=false; zone normalized from Depok/Mlati to Mlati",osm,osm_only,osm_only,node,1847529931,2026-06-24T16:08:05.739952+00:00
OSM-0039,Indomaret,indomaret,retail,Mlati,-7.7325432,110.3629984,,OpenStreetMap Overpass,https://overpass-api.de/api/interpreter,,"subcategory=shop:convenience; flags: direct=false, food=false, demand=false, support=true; zone normalized from Depok/Mlati/Ngaglik Selatan to Mlati",osm,osm_only,osm_only,node,1847957297,2026-06-24T16:09:35.619220+00:00
OSM-0040,Cafe league,cafe league,cafe,Mlati,-7.7342549,110.3628321,,OpenStreetMap Overpass,https://overpass-api.de/api/interpreter,,"subcategory=amenity:cafe; flags: direct=false, food=true, demand=false, support=false; zone normalized from Depok/Mlati/Ngaglik Selatan to Mlati",osm,osm_only,osm_only,node,1847960216,2026-06-24T16:09:35.619220+00:00
OSM-0041,Alfamart,alfamart,retail,Mlati,-7.7395333,110.3626564,,OpenStreetMap Overpass,https://overpass-api.de/api/interpreter,,"subcategory=shop:convenience; flags: direct=false, food=false, demand=false, support=true; zone normalized from Depok/Mlati/Ngaglik Selatan to Mlati",osm,osm_only,osm_only,node,1847967404,2026-06-24T16:09:35.619220+00:00
OSM-0042,Hotel Graha Buana,hotel graha buana,hotel,Mlati,-7.7436528,110.3622581,,OpenStreetMap Overpass,https://overpass-api.de/api/interpreter,,"subcategory=tourism:hotel; flags: direct=false, food=false, demand=false, support=true; zone normalized from Depok/Mlati/Ngaglik Selatan to Mlati",osm,osm_only,osm_only,node,1847978909,2026-06-24T16:09:35.619220+00:00
OSM-0043,Soto Pak Mustofa,soto pak mustofa,restaurant,Mlati,-7.7441259,110.3622876,,OpenStreetMap Overpass,https://overpass-api.de/api/interpreter,,"subcategory=amenity:restaurant; flags: direct=false, food=true, demand=false, support=false; zone normalized from Depok/Mlati/Ngaglik Selatan to Mlati",osm,osm_only,osm_only,node,1847980164,2026-06-24T16:09:35.619220+00:00
OSM-0044,Alfamart,alfamart,retail,Mlati,-7.747459,110.362585,,OpenStreetMap Overpass,https://overpass-api.de/api/interpreter,,"subcategory=shop:convenience; flags: direct=false, food=false, demand=false, support=true; zone normalized from Depok/Mlati to Mlati",osm,osm_only,osm_only,node,1847988256,2026-06-24T16:08:05.739952+00:00
OSM-0045,RM Menara Kudus,rm menara kudus,restaurant,Mlati,-7.7482705,110.3625878,,OpenStreetMap Overpass,https://overpass-api.de/api/interpreter,,"subcategory=amenity:restaurant; flags: direct=false, food=true, demand=false, support=false; zone normalized from Depok/Mlati to Mlati",osm,osm_only,osm_only,node,1847989065,2026-06-24T16:08:05.739952+00:00
OSM-0046,Bakmi Jombor,bakmi jombor,restaurant,Mlati,-7.7484553,110.3625565,,OpenStreetMap Overpass,https://overpass-api.de/api/interpreter,,"subcategory=amenity:restaurant; flags: direct=false, food=true, demand=false, support=false; zone normalized from Depok/Mlati to Mlati",osm,osm_only,osm_only,node,1847989864,2026-06-24T16:08:05.739952+00:00
OSM-0048,Hotel Melati,hotel melati,hotel,Mlati,-7.7502036,110.3625482,,OpenStreetMap Overpass,https://overpass-api.de/api/interpreter,,"subcategory=tourism:hotel; flags: direct=false, food=false, demand=false, support=true; zone normalized from Depok/Mlati to Mlati",osm,osm_only,osm_only,node,1847997726,2026-06-24T16:08:05.739952+00:00
OSM-0049,Sahid Rich Jogja Hotel,sahid rich jogja hotel,hotel,Mlati,-7.7524293,110.3611659,,OpenStreetMap Overpass,https://overpass-api.de/api/interpreter,,"subcategory=tourism:hotel; flags: direct=false, food=false, demand=false, support=true; zone normalized from Depok/Mlati to Mlati",osm,osm_only,osm_only,node,1848000010,2026-06-24T16:08:05.739952+00:00
OSM-0050,Nikita Home Furnishing,nikita home furnishing,retail,Mlati,-7.7544376,110.362296,,OpenStreetMap Overpass,https://overpass-api.de/api/interpreter,,"subcategory=shop:supermarket; flags: direct=false, food=false, demand=false, support=true; zone normalized from Depok/Mlati to Mlati",osm,osm_only,osm_only,node,1848014049,2026-06-24T16:08:05.739952+00:00
OSM-0051,Indomaret,indomaret,retail,Mlati,-7.7550384,110.3621884,,OpenStreetMap Overpass,https://overpass-api.de/api/interpreter,,"subcategory=shop:convenience; flags: direct=false, food=false, demand=false, support=true; zone normalized from Depok/Mlati to Mlati",osm,osm_only,osm_only,node,1848014339,2026-06-24T16:08:05.739952+00:00
OSM-0052,Alfamart,alfamart,retail,Mlati,-7.7552723,110.3621776,,OpenStreetMap Overpass,https://overpass-api.de/api/interpreter,,"subcategory=shop:convenience; flags: direct=false, food=false, demand=false, support=true; zone normalized from Depok/Mlati to Mlati",osm,osm_only,osm_only,node,1848014568,2026-06-24T16:08:05.739952+00:00
OSM-0053,Circle K,circle k,retail,Mlati,-7.7555402,110.3619364,,OpenStreetMap Overpass,https://overpass-api.de/api/interpreter,,"subcategory=shop:convenience; flags: direct=false, food=false, demand=false, support=true; zone normalized from Depok/Mlati to Mlati",osm,osm_only,osm_only,node,1848015107,2026-06-24T16:08:05.739952+00:00
OSM-0054,LIQUID,liquid,cafe,Mlati,-7.7560164,110.3622366,,OpenStreetMap Overpass,https://overpass-api.de/api/interpreter,,"subcategory=amenity:cafe; flags: direct=false, food=true, demand=false, support=false; zone normalized from Depok/Mlati to Mlati",osm,osm_only,osm_only,node,1848017150,2026-06-24T16:08:05.739952+00:00
OSM-0055,,,fast_food,Depok,-7.7982037,110.3812808,,OpenStreetMap Overpass,https://overpass-api.de/api/interpreter,,"subcategory=amenity:fast_food; flags: direct=false, food=true, demand=false, support=false",osm,osm_only,osm_only,node,1987943599,2026-06-24T16:07:57.357772+00:00
OSM-0056,,,cafe,Depok,-7.7979751,110.3815222,,OpenStreetMap Overpass,https://overpass-api.de/api/interpreter,,"subcategory=amenity:cafe; flags: direct=false, food=true, demand=false, support=false",osm,osm_only,osm_only,node,1987943600,2026-06-24T16:07:57.357772+00:00
OSM-0057,Dyefa Computer,dyefa computer,retail,Depok,-7.79491,110.3979795,,OpenStreetMap Overpass,https://overpass-api.de/api/interpreter,,"subcategory=shop:convenience; flags: direct=false, food=false, demand=false, support=true",osm,osm_only,osm_only,node,1988455488,2026-06-24T16:07:57.357772+00:00
OSM-0058,SD Perumnas,sd perumnas,school,Depok,-7.7567811,110.4072218,,OpenStreetMap Overpass,https://overpass-api.de/api/interpreter,,"subcategory=amenity:school; flags: direct=false, food=false, demand=true, support=false",osm,osm_only,osm_only,node,1988467903,2026-06-24T16:07:57.357772+00:00
OSM-0059,Indomaret,indomaret,retail,Depok,-7.7572273,110.4076736,,OpenStreetMap Overpass,https://overpass-api.de/api/interpreter,,"subcategory=shop:convenience; flags: direct=false, food=false, demand=false, support=true",osm,osm_only,osm_only,node,1988467904,2026-06-24T16:07:57.357772+00:00
OSM-0060,Sheraton Mustika Yogyakarta Resort & Spa,sheraton mustika yogyakarta resort & spa,hotel,Depok,-7.7798783,110.4284082,,OpenStreetMap Overpass,https://overpass-api.de/api/interpreter,,"subcategory=tourism:hotel; flags: direct=false, food=false, demand=false, support=true",osm,osm_only,osm_only,node,2024675832,2026-06-24T16:07:57.357772+00:00
OSM-0061,Indomaret,indomaret,retail,Depok,-7.7832431,110.4459151,,OpenStreetMap Overpass,https://overpass-api.de/api/interpreter,,"subcategory=shop:convenience; flags: direct=false, food=false, demand=false, support=true",osm,osm_only,osm_only,node,2037735936,2026-06-24T16:07:57.357772+00:00
OSM-0062,"Soto Bathok ""Mbah Joyo""","soto bathok ""mbah joyo""",restaurant,Depok,-7.7831728,110.4449559,,OpenStreetMap Overpass,https://overpass-api.de/api/interpreter,,"subcategory=amenity:restaurant; flags: direct=false, food=true, demand=false, support=false",osm,osm_only,osm_only,node,2037736007,2026-06-24T16:07:57.357772+00:00
OSM-0063,Kalasan Inn,kalasan inn,guest_house,Depok,-7.7833491,110.445516,,OpenStreetMap Overpass,https://overpass-api.de/api/interpreter,,"subcategory=tourism:guest_house; flags: direct=false, food=false, demand=false, support=true",osm,osm_only,osm_only,node,2037736373,2026-06-24T16:07:57.357772+00:00
OSM-0064,SD Negeri Perumnas III,sd negeri perumnas iii,school,Depok,-7.7553816,110.4111956,,OpenStreetMap Overpass,https://overpass-api.de/api/interpreter,,"subcategory=amenity:school; flags: direct=false, food=false, demand=true, support=false",osm,osm_only,osm_only,node,2167655299,2026-06-24T16:07:57.357772+00:00
OSM-0065,Indomaret,indomaret,retail,Mlati,-7.7747631,110.3611163,,OpenStreetMap Overpass,https://overpass-api.de/api/interpreter,,"subcategory=shop:convenience; flags: direct=false, food=false, demand=false, support=true; zone normalized from Depok/Mlati to Mlati",osm,osm_only,osm_only,node,2266459082,2026-06-24T16:08:05.739952+00:00
OSM-0066,Campus Inn Hotel,campus inn hotel,hostel,Depok,-7.7677991,110.3877158,,OpenStreetMap Overpass,https://overpass-api.de/api/interpreter,,"subcategory=tourism:hostel; flags: direct=false, food=false, demand=false, support=true; zone normalized from Depok/Mlati to Depok",osm,osm_only,osm_only,node,2386022747,2026-06-24T16:08:05.739952+00:00
OSM-0067,warung oncor asli,warung oncor asli,restaurant,Mlati,-7.7876154,110.3660367,,OpenStreetMap Overpass,https://overpass-api.de/api/interpreter,,"subcategory=amenity:restaurant; flags: direct=false, food=true, demand=false, support=false; zone normalized from Depok/Mlati to Mlati",osm,osm_only,osm_only,node,2411872249,2026-06-24T16:08:05.739952+00:00
OSM-0068,Betty losmen,betty losmen,guest_house,Mlati,-7.7909254,110.3636914,,OpenStreetMap Overpass,https://overpass-api.de/api/interpreter,,"subcategory=tourism:guest_house; flags: direct=false, food=false, demand=false, support=true; zone normalized from Depok/Mlati to Mlati",osm,osm_only,osm_only,node,2415513216,2026-06-24T16:08:05.739952+00:00
OSM-0069,lie djong,lie djong,restaurant,Depok,-7.8025789,110.3691254,,OpenStreetMap Overpass,https://overpass-api.de/api/interpreter,,"subcategory=amenity:restaurant; flags: direct=false, food=true, demand=false, support=false",osm,osm_only,osm_only,node,2419661766,2026-06-24T16:07:57.357772+00:00
OSM-0070,Dunkin',dunkin',fast_food,Depok,-7.7615648,110.380143,,OpenStreetMap Overpass,https://overpass-api.de/api/interpreter,,"subcategory=amenity:fast_food; flags: direct=false, food=true, demand=false, support=false; zone normalized from Depok/Mlati to Depok",osm,osm_only,osm_only,node,2564076661,2026-06-24T16:08:05.739952+00:00
OSM-0071,Hotel Ishiro Kencana,hotel ishiro kencana,hotel,Depok,-7.7639032,110.3803462,,OpenStreetMap Overpass,https://overpass-api.de/api/interpreter,,"subcategory=tourism:hotel; flags: direct=false, food=false, demand=false, support=true; zone normalized from Depok/Mlati to Depok",osm,osm_only,osm_only,node,2564076662,2026-06-24T16:08:05.739952+00:00
OSM-0072,SMP Negeri 2 Kalasan,smp negeri 2 kalasan,school,Depok,-7.7242115,110.4696283,,OpenStreetMap Overpass,https://overpass-api.de/api/interpreter,,"subcategory=amenity:school; flags: direct=false, food=false, demand=true, support=false",osm,osm_only,osm_only,node,2593288233,2026-06-24T16:07:57.357772+00:00
OSM-0073,Olive Fried Chicken,olive fried chicken,fast_food,Depok,-7.7618714,110.3955161,,OpenStreetMap Overpass,https://overpass-api.de/api/interpreter,,"subcategory=amenity:fast_food; flags: direct=false, food=true, demand=false, support=false",osm,osm_only,osm_only,node,2647353737,2026-06-24T16:07:57.357772+00:00
OSM-0074,,,restaurant,Depok,-7.761899,110.3938297,,OpenStreetMap Overpass,https://overpass-api.de/api/interpreter,,"subcategory=amenity:restaurant; flags: direct=false, food=true, demand=false, support=false",osm,osm_only,osm_only,node,2647356920,2026-06-24T16:07:57.357772+00:00
OSM-0075,Dunkin',dunkin',fast_food,Depok,-7.7831958,110.4363633,,OpenStreetMap Overpass,https://overpass-api.de/api/interpreter,,"subcategory=amenity:fast_food; flags: direct=false, food=true, demand=false, support=false",osm,osm_only,osm_only,node,2751311132,2026-06-24T16:07:57.357772+00:00
OSM-0076,Nasi Goreng Sapi Padmanaba,nasi goreng sapi padmanaba,restaurant,Depok,-7.7867728,110.3731595,,OpenStreetMap Overpass,https://overpass-api.de/api/interpreter,,"subcategory=amenity:restaurant; flags: direct=false, food=true, demand=false, support=false; zone normalized from Depok/Mlati to Depok",osm,osm_only,osm_only,node,2751354290,2026-06-24T16:08:05.739952+00:00
OSM-0077,warung soto,warung soto,restaurant,Depok,-7.78675,110.3932735,,OpenStreetMap Overpass,https://overpass-api.de/api/interpreter,,"subcategory=amenity:restaurant; flags: direct=false, food=true, demand=false, support=false",osm,osm_only,osm_only,node,2751371522,2026-06-24T16:07:57.357772+00:00
OSM-0078,Nanamia Pizzeria,nanamia pizzeria,restaurant,Depok,-7.7761421,110.3909484,,OpenStreetMap Overpass,https://overpass-api.de/api/interpreter,,"subcategory=amenity:restaurant; flags: direct=false, food=true, demand=false, support=false",osm,osm_only,osm_only,node,2837092409,2026-06-24T16:07:57.357772+00:00
OSM-0079,Gudeg Bu Tjitro,gudeg bu tjitro,restaurant,Depok,-7.7984745,110.4027756,,OpenStreetMap Overpass,https://overpass-api.de/api/interpreter,,"subcategory=amenity:restaurant; flags: direct=false, food=true, demand=false, support=false",osm,osm_only,osm_only,node,2992506474,2026-06-24T16:07:57.357772+00:00
OSM-0080,Tiga Lima Homestay,tiga lima homestay,hotel,Depok,-7.7801836,110.3870925,,OpenStreetMap Overpass,https://overpass-api.de/api/interpreter,,"subcategory=tourism:hotel; flags: direct=false, food=false, demand=false, support=true; zone normalized from Depok/Mlati to Depok",osm,osm_only,osm_only,node,3120386138,2026-06-24T16:08:05.739952+00:00
OSM-0081,VIDI.net,vidi.net,hostel,Depok,-7.7613299,110.3802596,,OpenStreetMap Overpass,https://overpass-api.de/api/interpreter,,"subcategory=tourism:hostel; flags: direct=false, food=false, demand=false, support=true; zone normalized from Depok/Mlati to Depok",osm,osm_only,osm_only,node,3176297864,2026-06-24T16:08:05.739952+00:00
OSM-0082,Laboratorium Teknik Mesin,laboratorium teknik mesin,college,Mlati,-7.7657049,110.370665,,OpenStreetMap Overpass,https://overpass-api.de/api/interpreter,,"subcategory=amenity:college; flags: direct=false, food=false, demand=true, support=false; zone normalized from Depok/Mlati to Mlati",osm,osm_only,osm_only,node,3195290749,2026-06-24T16:08:05.739952+00:00
OSM-0083,,,retail,Ngaglik Selatan,-7.7193623,110.369027,,OpenStreetMap Overpass,https://overpass-api.de/api/interpreter,,"subcategory=shop:supermarket; flags: direct=false, food=false, demand=false, support=true; zone normalized from Depok/Mlati/Ngaglik Selatan to Ngaglik Selatan",osm,osm_only,osm_only,node,3201415607,2026-06-24T16:09:35.619220+00:00
OSM-0084,Warung Mas Kali,warung mas kali,cafe,Ngaglik Selatan,-7.7338334,110.3887572,,OpenStreetMap Overpass,https://overpass-api.de/api/interpreter,,"subcategory=amenity:cafe; flags: direct=false, food=true, demand=false, support=false; zone normalized from Depok/Mlati/Ngaglik Selatan to Ngaglik Selatan",osm,osm_only,osm_only,node,3214965917,2026-06-24T16:09:35.619220+00:00
OSM-0085,Pandanaran,pandanaran,restaurant,Ngaglik Selatan,-7.7338823,110.3888713,,OpenStreetMap Overpass,https://overpass-api.de/api/interpreter,,"subcategory=amenity:restaurant; flags: direct=false, food=true, demand=false, support=false; zone normalized from Depok/Mlati/Ngaglik Selatan to Ngaglik Selatan",osm,osm_only,osm_only,node,3214965918,2026-06-24T16:09:35.619220+00:00
OSM-0086,Alfamart,alfamart,retail,Ngaglik Selatan,-7.7372309,110.3935832,,OpenStreetMap Overpass,https://overpass-api.de/api/interpreter,,"subcategory=shop:convenience; flags: direct=false, food=false, demand=false, support=true; zone normalized from Depok/Ngaglik Selatan to Ngaglik Selatan",osm,osm_only,osm_only,node,3214984451,2026-06-24T16:09:35.619220+00:00
OSM-0087,Jogja Milk,jogja milk,cafe,Depok,-7.7725708,110.397668,,OpenStreetMap Overpass,https://overpass-api.de/api/interpreter,,"subcategory=amenity:cafe; flags: direct=false, food=true, demand=false, support=false",osm,osm_only,osm_only,node,3215024599,2026-06-24T16:07:57.357772+00:00
OSM-0088,Gudeg Mbak Sasha,gudeg mbak sasha,restaurant,Depok,-7.7662565,110.3906189,,OpenStreetMap Overpass,https://overpass-api.de/api/interpreter,,"subcategory=amenity:restaurant; flags: direct=false, food=true, demand=false, support=false",osm,osm_only,osm_only,node,3229476050,2026-06-24T16:07:57.357772+00:00
OSM-0089,Gudeg Mbak Sasha (Lesehan),gudeg mbak sasha (lesehan),restaurant,Depok,-7.7696064,110.3904405,,OpenStreetMap Overpass,https://overpass-api.de/api/interpreter,,"subcategory=amenity:restaurant; flags: direct=false, food=true, demand=false, support=false",osm,osm_only,osm_only,node,3229477934,2026-06-24T16:07:57.357772+00:00
OSM-0090,Rumah Bawah Coffee & Chill,rumah bawah coffee & chill,cafe,Depok,-7.7676979,110.3925928,,OpenStreetMap Overpass,https://overpass-api.de/api/interpreter,,"subcategory=amenity:cafe; flags: direct=false, food=true, demand=false, support=false",osm,osm_only,osm_only,node,3229480991,2026-06-24T16:07:57.357772+00:00
OSM-0091,Warung Kopi Lidah Ibu,warung kopi lidah ibu,cafe,Depok,-7.7723343,110.3917411,,OpenStreetMap Overpass,https://overpass-api.de/api/interpreter,,"subcategory=amenity:cafe; flags: direct=false, food=true, demand=false, support=false",osm,osm_only,osm_only,node,3229480992,2026-06-24T16:07:57.357772+00:00
OSM-0092,Restaurant aceh Bungong Jeumpa,restaurant aceh bungong jeumpa,restaurant,Depok,-7.776442,110.3930947,,OpenStreetMap Overpass,https://overpass-api.de/api/interpreter,,"subcategory=amenity:restaurant; flags: direct=false, food=true, demand=false, support=false",osm,osm_only,osm_only,node,3229488565,2026-06-24T16:07:57.357772+00:00
OSM-0093,Ayam Geprek Bu Rum,ayam geprek bu rum,restaurant,Depok,-7.775472,110.3953673,,OpenStreetMap Overpass,https://overpass-api.de/api/interpreter,,"subcategory=amenity:restaurant; flags: direct=false, food=true, demand=false, support=false",osm,osm_only,osm_only,node,3229490386,2026-06-24T16:07:57.357772+00:00
OSM-0094,SD Muhammadiyah 10,sd muhammadiyah 10,school,Depok,-7.7799717,110.3786041,,OpenStreetMap Overpass,https://overpass-api.de/api/interpreter,,"subcategory=amenity:school; flags: direct=false, food=false, demand=true, support=false; zone normalized from Depok/Mlati to Depok",osm,osm_only,osm_only,node,3229499839,2026-06-24T16:08:05.739952+00:00
OSM-0095,Melu Cafe,melu cafe,cafe,Depok,-7.7844877,110.3748777,,OpenStreetMap Overpass,https://overpass-api.de/api/interpreter,,"subcategory=amenity:cafe; flags: direct=false, food=true, demand=false, support=false; zone normalized from Depok/Mlati to Depok",osm,osm_only,osm_only,node,3229516709,2026-06-24T16:08:05.739952+00:00
OSM-0096,Soto Mbak Nunung,soto mbak nunung,restaurant,Depok,-7.8027336,110.3637554,,OpenStreetMap Overpass,https://overpass-api.de/api/interpreter,,"subcategory=amenity:restaurant; flags: direct=false, food=true, demand=false, support=false",osm,osm_only,osm_only,node,3229532925,2026-06-24T16:07:57.357772+00:00
OSM-0097,,,restaurant,Depok,-7.7461453,110.3900085,,OpenStreetMap Overpass,https://overpass-api.de/api/interpreter,,"subcategory=amenity:restaurant; flags: direct=false, food=true, demand=false, support=false",osm,osm_only,osm_only,node,3279622593,2026-06-24T16:07:57.357772+00:00
OSM-0098,Trans Yogya,trans yogya,hotel,Depok,-7.7937659,110.3739488,,OpenStreetMap Overpass,https://overpass-api.de/api/interpreter,,"subcategory=tourism:hotel; flags: direct=false, food=false, demand=false, support=true; zone normalized from Depok/Mlati to Depok",osm,osm_only,osm_only,node,3305628217,2026-06-24T16:08:05.739952+00:00
OSM-0099,SD Muhammadiyah Karangwaru,sd muhammadiyah karangwaru,school,Mlati,-7.7708746,110.3621669,,OpenStreetMap Overpass,https://overpass-api.de/api/interpreter,,"subcategory=amenity:school; flags: direct=false, food=false, demand=true, support=false; zone normalized from Depok/Mlati to Mlati",osm,osm_only,osm_only,node,3315788117,2026-06-24T16:08:05.739952+00:00
OSM-0100,Soto Pak Marto,soto pak marto,restaurant,Depok,-7.7984747,110.4032706,,OpenStreetMap Overpass,https://overpass-api.de/api/interpreter,,"subcategory=amenity:restaurant; flags: direct=false, food=true, demand=false, support=false",osm,osm_only,osm_only,node,3345753943,2026-06-24T16:07:57.357772+00:00
OSM-0101,,,cafe,Mlati,-7.7582129,110.3774113,,OpenStreetMap Overpass,https://overpass-api.de/api/interpreter,,"subcategory=amenity:cafe; flags: direct=false, food=true, demand=false, support=false; zone normalized from Depok/Mlati to Mlati",osm,osm_only,osm_only,node,3363079081,2026-06-24T16:08:05.739952+00:00
OSM-0102,,,restaurant,Mlati,-7.7611014,110.3789264,,OpenStreetMap Overpass,https://overpass-api.de/api/interpreter,,"subcategory=amenity:restaurant; flags: direct=false, food=true, demand=false, support=false; zone normalized from Depok/Mlati to Mlati",osm,osm_only,osm_only,node,3395885783,2026-06-24T16:08:05.739952+00:00
OSM-0103,Garden Cafe,garden cafe,restaurant,Depok,-7.7733981,110.3852472,,OpenStreetMap Overpass,https://overpass-api.de/api/interpreter,,"subcategory=amenity:restaurant; flags: direct=false, food=true, demand=false, support=false; zone normalized from Depok/Mlati to Depok",osm,osm_only,osm_only,node,3396431271,2026-06-24T16:08:05.739952+00:00
OSM-0104,House of Raminten,house of raminten,restaurant,Mlati,-7.785123,110.3715439,,OpenStreetMap Overpass,https://overpass-api.de/api/interpreter,,"subcategory=amenity:restaurant; flags: direct=false, food=true, demand=false, support=false; zone normalized from Depok/Mlati to Mlati",osm,osm_only,osm_only,node,3396431272,2026-06-24T16:08:05.739952+00:00
OSM-0105,Kopma UNY,kopma uny,retail,Depok,-7.7733918,110.3855843,,OpenStreetMap Overpass,https://overpass-api.de/api/interpreter,,"subcategory=shop:convenience; flags: direct=false, food=false, demand=false, support=true; zone normalized from Depok/Mlati to Depok",osm,osm_only,osm_only,node,3396431274,2026-06-24T16:08:05.739952+00:00
OSM-0106,Restaurant Palm Kuning (Kecil),restaurant palm kuning (kecil),restaurant,Mlati,-7.7604161,110.3760627,,OpenStreetMap Overpass,https://overpass-api.de/api/interpreter,,"subcategory=amenity:restaurant; flags: direct=false, food=true, demand=false, support=false; zone normalized from Depok/Mlati to Mlati",osm,osm_only,osm_only,node,3397785495,2026-06-24T16:08:05.739952+00:00
OSM-0107,,,retail,Mlati,-7.7606141,110.3759815,,OpenStreetMap Overpass,https://overpass-api.de/api/interpreter,,"subcategory=shop:convenience; flags: direct=false, food=false, demand=false, support=true; zone normalized from Depok/Mlati to Mlati",osm,osm_only,osm_only,node,3397785522,2026-06-24T16:08:05.739952+00:00
OSM-0108,Al-Maidah,al-maidah,restaurant,Mlati,-7.7609712,110.3779694,,OpenStreetMap Overpass,https://overpass-api.de/api/interpreter,,"subcategory=amenity:restaurant; flags: direct=false, food=true, demand=false, support=false; zone normalized from Depok/Mlati to Mlati",osm,osm_only,osm_only,node,3397825665,2026-06-24T16:08:05.739952+00:00
OSM-0109,De'Sushi,de'sushi,restaurant,Depok,-7.7620842,110.3799727,,OpenStreetMap Overpass,https://overpass-api.de/api/interpreter,,"subcategory=amenity:restaurant; flags: direct=false, food=true, demand=false, support=false; zone normalized from Depok/Mlati to Depok",osm,osm_only,osm_only,node,3397825666,2026-06-24T16:08:05.739952+00:00
OSM-0110,kos,kos,hostel,Mlati,-7.7612182,110.3618923,,OpenStreetMap Overpass,https://overpass-api.de/api/interpreter,,"subcategory=tourism:hostel; flags: direct=false, food=false, demand=false, support=true; zone normalized from Depok/Mlati to Mlati",osm,osm_only,osm_only,node,3422669469,2026-06-24T16:08:05.739952+00:00
OSM-0111,Kantin EMB,kantin emb,restaurant,Mlati,-7.7618636,110.3755754,,OpenStreetMap Overpass,https://overpass-api.de/api/interpreter,,"subcategory=amenity:restaurant; flags: direct=false, food=true, demand=false, support=false; zone normalized from Depok/Mlati to Mlati",osm,osm_only,osm_only,node,3451492128,2026-06-24T16:08:05.739952+00:00
OSM-0112,Nasi Bakar,nasi bakar,restaurant,Depok,-7.7588172,110.3822232,,OpenStreetMap Overpass,https://overpass-api.de/api/interpreter,,"subcategory=amenity:restaurant; flags: direct=false, food=true, demand=false, support=false; zone normalized from Depok/Mlati to Depok",osm,osm_only,osm_only,node,3451535429,2026-06-24T16:08:05.739952+00:00
OSM-0113,Bakmi Kadin,bakmi kadin,restaurant,Depok,-7.8019642,110.3726219,,OpenStreetMap Overpass,https://overpass-api.de/api/interpreter,,"subcategory=amenity:restaurant; flags: direct=false, food=true, demand=false, support=false",osm,osm_only,osm_only,node,3451628642,2026-06-24T16:07:57.357772+00:00
OSM-0114,Pak Jede,pak jede,restaurant,Depok,-7.7737648,110.4008867,,OpenStreetMap Overpass,https://overpass-api.de/api/interpreter,,"subcategory=amenity:restaurant; flags: direct=false, food=true, demand=false, support=false",osm,osm_only,osm_only,node,3451628644,2026-06-24T16:07:57.357772+00:00
OSM-0115,Rawit Merah,rawit merah,restaurant,Depok,-7.7799069,110.3998745,,OpenStreetMap Overpass,https://overpass-api.de/api/interpreter,,"subcategory=amenity:restaurant; flags: direct=false, food=true, demand=false, support=false",osm,osm_only,osm_only,node,3451628645,2026-06-24T16:07:57.357772+00:00
OSM-0116,Telerrrr,telerrrr,restaurant,Depok,-7.7690037,110.4018976,,OpenStreetMap Overpass,https://overpass-api.de/api/interpreter,,"subcategory=amenity:restaurant; flags: direct=false, food=true, demand=false, support=false",osm,osm_only,osm_only,node,3451628646,2026-06-24T16:07:57.357772+00:00
OSM-0117,Bakso Mas Ndut,bakso mas ndut,restaurant,Depok,-7.7643375,110.3871976,,OpenStreetMap Overpass,https://overpass-api.de/api/interpreter,,"subcategory=amenity:restaurant; flags: direct=false, food=true, demand=false, support=false; zone normalized from Depok/Mlati to Depok",osm,osm_only,osm_only,node,3451899393,2026-06-24T16:08:05.739952+00:00
OSM-0118,Cowmad,cowmad,restaurant,Depok,-7.7651193,110.388642,,OpenStreetMap Overpass,https://overpass-api.de/api/interpreter,,"subcategory=amenity:restaurant; flags: direct=false, food=true, demand=false, support=false; zone normalized from Depok/Mlati to Depok",osm,osm_only,osm_only,node,3451899394,2026-06-24T16:08:05.739952+00:00
OSM-0119,Ohlala,ohlala,restaurant,Depok,-7.763703,110.3851462,,OpenStreetMap Overpass,https://overpass-api.de/api/interpreter,,"subcategory=amenity:restaurant; flags: direct=false, food=true, demand=false, support=false; zone normalized from Depok/Mlati to Depok",osm,osm_only,osm_only,node,3451899398,2026-06-24T16:08:05.739952+00:00
OSM-0120,Sambal Korek Pak Topo,sambal korek pak topo,restaurant,Depok,-7.7643135,110.3872753,,OpenStreetMap Overpass,https://overpass-api.de/api/interpreter,,"subcategory=amenity:restaurant; flags: direct=false, food=true, demand=false, support=false; zone normalized from Depok/Mlati to Depok",osm,osm_only,osm_only,node,3451899400,2026-06-24T16:08:05.739952+00:00
OSM-0121,Warung Istiqomah,warung istiqomah,restaurant,Depok,-7.7626634,110.3867913,,OpenStreetMap Overpass,https://overpass-api.de/api/interpreter,,"subcategory=amenity:restaurant; flags: direct=false, food=true, demand=false, support=false; zone normalized from Depok/Mlati to Depok",osm,osm_only,osm_only,node,3451899401,2026-06-24T16:08:05.739952+00:00
OSM-0122,Warung Penyetan Varnos,warung penyetan varnos,restaurant,Depok,-7.7636877,110.3853312,,OpenStreetMap Overpass,https://overpass-api.de/api/interpreter,,"subcategory=amenity:restaurant; flags: direct=false, food=true, demand=false, support=false; zone normalized from Depok/Mlati to Depok",osm,osm_only,osm_only,node,3451899402,2026-06-24T16:08:05.739952+00:00
OSM-0123,Warung,warung,restaurant,Depok,-7.7641596,110.3866811,,OpenStreetMap Overpass,https://overpass-api.de/api/interpreter,,"subcategory=amenity:restaurant; flags: direct=false, food=true, demand=false, support=false; zone normalized from Depok/Mlati to Depok",osm,osm_only,osm_only,node,3451899403,2026-06-24T16:08:05.739952+00:00
OSM-0124,Yamie Panda,yamie panda,restaurant,Depok,-7.7629793,110.3820313,,OpenStreetMap Overpass,https://overpass-api.de/api/interpreter,,"subcategory=amenity:restaurant; flags: direct=false, food=true, demand=false, support=false; zone normalized from Depok/Mlati to Depok",osm,osm_only,osm_only,node,3451899404,2026-06-24T16:08:05.739952+00:00
OSM-0125,,,restaurant,Depok,-7.7675561,110.3824643,,OpenStreetMap Overpass,https://overpass-api.de/api/interpreter,,"subcategory=amenity:restaurant; flags: direct=false, food=true, demand=false, support=false; zone normalized from Depok/Mlati to Depok",osm,osm_only,osm_only,node,3451899426,2026-06-24T16:08:05.739952+00:00
OSM-0126,,,retail,Mlati,-7.7623889,110.3682141,,OpenStreetMap Overpass,https://overpass-api.de/api/interpreter,,"subcategory=shop:convenience; flags: direct=false, food=false, demand=false, support=true; zone normalized from Depok/Mlati to Mlati",osm,osm_only,osm_only,node,3453359518,2026-06-24T16:08:05.739952+00:00
OSM-0127,Tickles Cafe,tickles cafe,restaurant,Depok,-7.7784141,110.3929959,,OpenStreetMap Overpass,https://overpass-api.de/api/interpreter,,"subcategory=amenity:restaurant; flags: direct=false, food=true, demand=false, support=false",osm,osm_only,osm_only,node,3453372108,2026-06-24T16:07:57.357772+00:00
OSM-0128,Bakmi Jowo,bakmi jowo,restaurant,Depok,-7.7533055,110.3842035,,OpenStreetMap Overpass,https://overpass-api.de/api/interpreter,,"subcategory=amenity:restaurant; flags: direct=false, food=true, demand=false, support=false; zone normalized from Depok/Mlati to Depok",osm,osm_only,osm_only,node,3472798341,2026-06-24T16:08:05.739952+00:00
OSM-0129,favehotel Kusumanegara,favehotel kusumanegara,hotel,Depok,-7.8014508,110.3882241,,OpenStreetMap Overpass,https://overpass-api.de/api/interpreter,,"subcategory=tourism:hotel; flags: direct=false, food=false, demand=false, support=true",osm,osm_only,osm_only,node,3472798344,2026-06-24T16:07:57.357772+00:00
OSM-0130,Kantin,kantin,restaurant,Depok,-7.7739406,110.3836852,,OpenStreetMap Overpass,https://overpass-api.de/api/interpreter,,"subcategory=amenity:restaurant; flags: direct=false, food=true, demand=false, support=false; zone normalized from Depok/Mlati to Depok",osm,osm_only,osm_only,node,3472801540,2026-06-24T16:08:05.739952+00:00
OSM-0131,Alembana,alembana,restaurant,Depok,-7.779847,110.3905815,,OpenStreetMap Overpass,https://overpass-api.de/api/interpreter,,"subcategory=amenity:restaurant; flags: direct=false, food=true, demand=false, support=false",osm,osm_only,osm_only,node,3473031872,2026-06-24T16:07:57.357772+00:00
OSM-0132,Calzonne Express,calzonne express,restaurant,Depok,-7.7801993,110.3914457,,OpenStreetMap Overpass,https://overpass-api.de/api/interpreter,,"subcategory=amenity:restaurant; flags: direct=false, food=true, demand=false, support=false",osm,osm_only,osm_only,node,3473031875,2026-06-24T16:07:57.357772+00:00
OSM-0133,Homestay Ndalem Mbak Charly,homestay ndalem mbak charly,guest_house,Depok,-7.7795465,110.391168,,OpenStreetMap Overpass,https://overpass-api.de/api/interpreter,,"subcategory=tourism:guest_house; flags: direct=false, food=false, demand=false, support=true",osm,osm_only,osm_only,node,3473031880,2026-06-24T16:07:57.357772+00:00
OSM-0134,Il Mondo,il mondo,restaurant,Depok,-7.7786217,110.390571,,OpenStreetMap Overpass,https://overpass-api.de/api/interpreter,,"subcategory=amenity:restaurant; flags: direct=false, food=true, demand=false, support=false",osm,osm_only,osm_only,node,3473031881,2026-06-24T16:07:57.357772+00:00
OSM-0135,Lagani Cafe,lagani cafe,cafe,Depok,-7.7799289,110.3908767,,OpenStreetMap Overpass,https://overpass-api.de/api/interpreter,,"subcategory=amenity:cafe; flags: direct=false, food=true, demand=false, support=false",osm,osm_only,osm_only,node,3473031884,2026-06-24T16:07:57.357772+00:00
OSM-0136,Midtown Xpress,midtown xpress,hotel,Depok,-7.7800918,110.3910186,,OpenStreetMap Overpass,https://overpass-api.de/api/interpreter,,"subcategory=tourism:hotel; flags: direct=false, food=false, demand=false, support=true",osm,osm_only,osm_only,node,3473031886,2026-06-24T16:07:57.357772+00:00
OSM-0137,Old Dish,old dish,restaurant,Depok,-7.7794071,110.3901139,,OpenStreetMap Overpass,https://overpass-api.de/api/interpreter,,"subcategory=amenity:restaurant; flags: direct=false, food=true, demand=false, support=false",osm,osm_only,osm_only,node,3473031887,2026-06-24T16:07:57.357772+00:00
OSM-0138,Popeye Chicken Express,popeye chicken express,restaurant,Depok,-7.7808919,110.3924179,,OpenStreetMap Overpass,https://overpass-api.de/api/interpreter,,"subcategory=amenity:restaurant; flags: direct=false, food=true, demand=false, support=false",osm,osm_only,osm_only,node,3473031888,2026-06-24T16:07:57.357772+00:00
OSM-0139,Puri Artha Hotel,puri artha hotel,hotel,Depok,-7.7799907,110.3912565,,OpenStreetMap Overpass,https://overpass-api.de/api/interpreter,,"subcategory=tourism:hotel; flags: direct=false, food=false, demand=false, support=true",osm,osm_only,osm_only,node,3473031889,2026-06-24T16:07:57.357772+00:00
OSM-0140,Real Burger,real burger,restaurant,Depok,-7.7786168,110.3898641,,OpenStreetMap Overpass,https://overpass-api.de/api/interpreter,,"subcategory=amenity:restaurant; flags: direct=false, food=true, demand=false, support=false; zone normalized from Depok/Mlati to Depok",osm,osm_only,osm_only,node,3473031890,2026-06-24T16:08:05.739952+00:00
OSM-0141,Resto OZ,resto oz,restaurant,Depok,-7.7797756,110.3902234,,OpenStreetMap Overpass,https://overpass-api.de/api/interpreter,,"subcategory=amenity:restaurant; flags: direct=false, food=true, demand=false, support=false",osm,osm_only,osm_only,node,3473031891,2026-06-24T16:07:57.357772+00:00
OSM-0142,SD Olifant,sd olifant,school,Depok,-7.7801665,110.3917843,,OpenStreetMap Overpass,https://overpass-api.de/api/interpreter,,"subcategory=amenity:school; flags: direct=false, food=false, demand=true, support=false",osm,osm_only,osm_only,node,3473031892,2026-06-24T16:07:57.357772+00:00
OSM-0143,Soto Kudus Gajah Mada,soto kudus gajah mada,restaurant,Depok,-7.7828175,110.3920591,,OpenStreetMap Overpass,https://overpass-api.de/api/interpreter,,"subcategory=amenity:restaurant; flags: direct=false, food=true, demand=false, support=false",osm,osm_only,osm_only,node,3473035394,2026-06-24T16:07:57.357772+00:00
OSM-0144,Warung Lotek Bu Iduk,warung lotek bu iduk,restaurant,Depok,-7.7790468,110.390195,,OpenStreetMap Overpass,https://overpass-api.de/api/interpreter,,"subcategory=amenity:restaurant; flags: direct=false, food=true, demand=false, support=false",osm,osm_only,osm_only,node,3473035397,2026-06-24T16:07:57.357772+00:00
OSM-0145,Wisma Pu,wisma pu,hotel,Depok,-7.7828531,110.3945734,,OpenStreetMap Overpass,https://overpass-api.de/api/interpreter,,"subcategory=tourism:hotel; flags: direct=false, food=false, demand=false, support=true",osm,osm_only,osm_only,node,3473035399,2026-06-24T16:07:57.357772+00:00
OSM-0146,Soto Ayam Miroso,soto ayam miroso,restaurant,Depok,-7.7830923,110.3985629,,OpenStreetMap Overpass,https://overpass-api.de/api/interpreter,,"subcategory=amenity:restaurant; flags: direct=false, food=true, demand=false, support=false",osm,osm_only,osm_only,node,3473046926,2026-06-24T16:07:57.357772+00:00
OSM-0147,Bale Babakaran,bale babakaran,restaurant,Depok,-7.7732076,110.3884696,,OpenStreetMap Overpass,https://overpass-api.de/api/interpreter,,"subcategory=amenity:restaurant; flags: direct=false, food=true, demand=false, support=false; zone normalized from Depok/Mlati to Depok",osm,osm_only,osm_only,node,3473955064,2026-06-24T16:08:05.739952+00:00
OSM-0148,Kantin Garasi,kantin garasi,restaurant,Depok,-7.7755305,110.3880473,,OpenStreetMap Overpass,https://overpass-api.de/api/interpreter,,"subcategory=amenity:restaurant; flags: direct=false, food=true, demand=false, support=false; zone normalized from Depok/Mlati to Depok",osm,osm_only,osm_only,node,3473955065,2026-06-24T16:08:05.739952+00:00
OSM-0149,Kedai Mitra,kedai mitra,retail,Depok,-7.7735101,110.386842,,OpenStreetMap Overpass,https://overpass-api.de/api/interpreter,,"subcategory=shop:convenience; flags: direct=false, food=false, demand=false, support=true; zone normalized from Depok/Mlati to Depok",osm,osm_only,osm_only,node,3473955066,2026-06-24T16:08:05.739952+00:00
OSM-0150,UNY Hotel,uny hotel,hotel,Depok,-7.7736153,110.3857337,,OpenStreetMap Overpass,https://overpass-api.de/api/interpreter,,"subcategory=tourism:hotel; flags: direct=false, food=false, demand=false, support=true; zone normalized from Depok/Mlati to Depok",osm,osm_only,osm_only,node,3473955070,2026-06-24T16:08:05.739952+00:00
OSM-0151,SMA Gama (Tiga Maret),sma gama (tiga maret),school,Depok,-7.7741677,110.3890244,,OpenStreetMap Overpass,https://overpass-api.de/api/interpreter,,"subcategory=amenity:school; flags: direct=false, food=false, demand=true, support=false; zone normalized from Depok/Mlati to Depok",osm,osm_only,osm_only,node,3473993551,2026-06-24T16:08:05.739952+00:00
OSM-0152,Kangen Hotel,kangen hotel,hotel,Mlati,-7.753663,110.3619242,,OpenStreetMap Overpass,https://overpass-api.de/api/interpreter,,"subcategory=tourism:hotel; flags: direct=false, food=false, demand=false, support=true; zone normalized from Depok/Mlati to Mlati",osm,osm_only,osm_only,node,3492884193,2026-06-24T16:08:05.739952+00:00
OSM-0153,Indomaret,indomaret,retail,Depok,-7.7703313,110.3901262,,OpenStreetMap Overpass,https://overpass-api.de/api/interpreter,,"subcategory=shop:convenience; flags: direct=false, food=false, demand=false, support=true",osm,osm_only,osm_only,node,3521371890,2026-06-24T16:07:57.357772+00:00
OSM-0154,Lux Coffee,lux coffee,cafe,Depok,-7.7724642,110.3973456,,OpenStreetMap Overpass,https://overpass-api.de/api/interpreter,,"subcategory=amenity:cafe; flags: direct=false, food=true, demand=false, support=false",osm,osm_only,osm_only,node,3521371891,2026-06-24T16:07:57.357772+00:00
OSM-0155,SMP Negeri 4 Ngaglik,smp negeri 4 ngaglik,school,Ngaglik Selatan,-7.715866,110.3876934,,OpenStreetMap Overpass,https://overpass-api.de/api/interpreter,,"subcategory=amenity:school; flags: direct=false, food=false, demand=true, support=false; zone normalized from Depok/Mlati/Ngaglik Selatan to Ngaglik Selatan",osm,osm_only,osm_only,node,3521567388,2026-06-24T16:09:35.619220+00:00
OSM-0156,Citihub Hotel Gejayan,citihub hotel gejayan,hotel,Depok,-7.7591302,110.3948305,,OpenStreetMap Overpass,https://overpass-api.de/api/interpreter,,"subcategory=tourism:hotel; flags: direct=false, food=false, demand=false, support=true",osm,osm_only,osm_only,node,3530581765,2026-06-24T16:07:57.357772+00:00
OSM-0157,Sriwedari Hotel and Cottage,sriwedari hotel and cottage,hotel,Depok,-7.7835198,110.4043703,,OpenStreetMap Overpass,https://overpass-api.de/api/interpreter,,"subcategory=tourism:hotel; flags: direct=false, food=false, demand=false, support=true",osm,osm_only,osm_only,node,3530590735,2026-06-24T16:07:57.357772+00:00
OSM-0158,Hotel Paku Mas,hotel paku mas,hotel,Depok,-7.7834848,110.4027952,,OpenStreetMap Overpass,https://overpass-api.de/api/interpreter,,"subcategory=tourism:hotel; flags: direct=false, food=false, demand=false, support=true",osm,osm_only,osm_only,node,3530590736,2026-06-24T16:07:57.357772+00:00
OSM-0159,LPP Garden Hotel,lpp garden hotel,hotel,Depok,-7.7824029,110.4055656,,OpenStreetMap Overpass,https://overpass-api.de/api/interpreter,,"subcategory=tourism:hotel; flags: direct=false, food=false, demand=false, support=true",osm,osm_only,osm_only,node,3530590737,2026-06-24T16:07:57.357772+00:00
OSM-0160,Merapi Merbabu Hotels,merapi merbabu hotels,hotel,Depok,-7.7715261,110.409937,,OpenStreetMap Overpass,https://overpass-api.de/api/interpreter,,"subcategory=tourism:hotel; flags: direct=false, food=false, demand=false, support=true",osm,osm_only,osm_only,node,3530590738,2026-06-24T16:07:57.357772+00:00
OSM-0161,Hotel Kombokarno Utama,hotel kombokarno utama,hotel,Mlati,-7.7838761,110.3671107,,OpenStreetMap Overpass,https://overpass-api.de/api/interpreter,,"subcategory=tourism:hotel; flags: direct=false, food=false, demand=false, support=true; zone normalized from Depok/Mlati to Mlati",osm,osm_only,osm_only,node,3557258188,2026-06-24T16:08:05.739952+00:00
OSM-0162,The 101,the 101,hotel,Mlati,-7.7843537,110.3665757,,OpenStreetMap Overpass,https://overpass-api.de/api/interpreter,,"subcategory=tourism:hotel; flags: direct=false, food=false, demand=false, support=true; zone normalized from Depok/Mlati to Mlati",osm,osm_only,osm_only,node,3557258190,2026-06-24T16:08:05.739952+00:00
OSM-0163,Hotel Citradream Yogyakarta,hotel citradream yogyakarta,hotel,Mlati,-7.780212,110.3676243,,OpenStreetMap Overpass,https://overpass-api.de/api/interpreter,,"subcategory=tourism:hotel; flags: direct=false, food=false, demand=false, support=true; zone normalized from Depok/Mlati to Mlati",osm,osm_only,osm_only,node,3557258192,2026-06-24T16:08:05.739952+00:00
OSM-0164,Monginsidi Guest House,monginsidi guest house,hotel,Mlati,-7.7780727,110.3659077,,OpenStreetMap Overpass,https://overpass-api.de/api/interpreter,,"subcategory=tourism:hotel; flags: direct=false, food=false, demand=false, support=true; zone normalized from Depok/Mlati to Mlati",osm,osm_only,osm_only,node,3557258293,2026-06-24T16:08:05.739952+00:00
OSM-0165,Hotel Santika Premiere Jogja,hotel santika premiere jogja,hotel,Mlati,-7.7825127,110.3696825,,OpenStreetMap Overpass,https://overpass-api.de/api/interpreter,,"subcategory=tourism:hotel; flags: direct=false, food=false, demand=false, support=true; zone normalized from Depok/Mlati to Mlati",osm,osm_only,osm_only,node,3557258294,2026-06-24T16:08:05.739952+00:00
OSM-0166,Papa Rons Pizza,papa rons pizza,restaurant,Mlati,-7.7795662,110.3670879,,OpenStreetMap Overpass,https://overpass-api.de/api/interpreter,,"subcategory=amenity:restaurant; flags: direct=false, food=true, demand=false, support=false; zone normalized from Depok/Mlati to Mlati",osm,osm_only,osm_only,node,3557258295,2026-06-24T16:08:05.739952+00:00
OSM-0167,Laxston Hotel,laxston hotel,hotel,Mlati,-7.7803009,110.3610956,,OpenStreetMap Overpass,https://overpass-api.de/api/interpreter,,"subcategory=tourism:hotel; flags: direct=false, food=false, demand=false, support=true; zone normalized from Depok/Mlati to Mlati",osm,osm_only,osm_only,node,3557258296,2026-06-24T16:08:05.739952+00:00
OSM-0168,Acacia Guest House,acacia guest house,guest_house,Mlati,-7.7704671,110.3578036,,OpenStreetMap Overpass,https://overpass-api.de/api/interpreter,,"subcategory=tourism:guest_house; flags: direct=false, food=false, demand=false, support=true; zone normalized from Depok/Mlati to Mlati",osm,osm_only,osm_only,node,3557258298,2026-06-24T16:08:05.739952+00:00
OSM-0169,Crystal Lotus Hotel Yogyakarta Managed by Prabu,crystal lotus hotel yogyakarta managed by prabu,hotel,Mlati,-7.7607878,110.3619963,,OpenStreetMap Overpass,https://overpass-api.de/api/interpreter,,"subcategory=tourism:hotel; flags: direct=false, food=false, demand=false, support=true; zone normalized from Depok/Mlati to Mlati",osm,osm_only,osm_only,node,3557258299,2026-06-24T16:08:05.739952+00:00
OSM-0170,Griya Kalimantan,griya kalimantan,guest_house,Mlati,-7.7601889,110.3606526,,OpenStreetMap Overpass,https://overpass-api.de/api/interpreter,,"subcategory=tourism:guest_house; flags: direct=false, food=false, demand=false, support=true; zone normalized from Depok/Mlati to Mlati",osm,osm_only,osm_only,node,3557258300,2026-06-24T16:08:05.739952+00:00
OSM-0171,Wisma Anugrah Wisata,wisma anugrah wisata,hotel,Depok,-7.7592304,110.3817488,,OpenStreetMap Overpass,https://overpass-api.de/api/interpreter,,"subcategory=tourism:hotel; flags: direct=false, food=false, demand=false, support=true; zone normalized from Depok/Mlati to Depok",osm,osm_only,osm_only,node,3557348913,2026-06-24T16:08:05.739952+00:00
OSM-0172,Cakra Kusuma Hotel,cakra kusuma hotel,hotel,Depok,-7.7600869,110.3808206,,OpenStreetMap Overpass,https://overpass-api.de/api/interpreter,,"subcategory=tourism:hotel; flags: direct=false, food=false, demand=false, support=true; zone normalized from Depok/Mlati to Depok",osm,osm_only,osm_only,node,3557380296,2026-06-24T16:08:05.739952+00:00
OSM-0173,Hyatt Regency,hyatt regency,hotel,Mlati,-7.7409592,110.3734285,,OpenStreetMap Overpass,https://overpass-api.de/api/interpreter,,"subcategory=tourism:hotel; flags: direct=false, food=false, demand=false, support=true; zone normalized from Depok/Mlati/Ngaglik Selatan to Mlati",osm,osm_only,osm_only,node,3557508868,2026-06-24T16:09:35.619220+00:00
OSM-0174,LPP Convention Hotel,lpp convention hotel,hotel,Depok,-7.7786287,110.3926237,,OpenStreetMap Overpass,https://overpass-api.de/api/interpreter,,"subcategory=tourism:hotel; flags: direct=false, food=false, demand=false, support=true",osm,osm_only,osm_only,node,3557508870,2026-06-24T16:07:57.357772+00:00
OSM-0175,Hotel Royal Ambarrukmo,hotel royal ambarrukmo,hotel,Depok,-7.7824428,110.4029423,,OpenStreetMap Overpass,https://overpass-api.de/api/interpreter,,"subcategory=tourism:hotel; flags: direct=false, food=false, demand=false, support=true",osm,osm_only,osm_only,node,3557508871,2026-06-24T16:07:57.357772+00:00
OSM-0176,Hotel Jayakarta,hotel jayakarta,hotel,Depok,-7.7836203,110.4195542,,OpenStreetMap Overpass,https://overpass-api.de/api/interpreter,,"subcategory=tourism:hotel; flags: direct=false, food=false, demand=false, support=true",osm,osm_only,osm_only,node,3557508872,2026-06-24T16:07:57.357772+00:00
OSM-0177,SMK Diponegoro Depok,smk diponegoro depok,school,Depok,-7.7602791,110.4397814,,OpenStreetMap Overpass,https://overpass-api.de/api/interpreter,,"subcategory=amenity:school; flags: direct=false, food=false, demand=true, support=false",osm,osm_only,osm_only,node,3585055168,2026-06-24T16:07:57.357772+00:00
OSM-0178,SMP Diponegoro Depok,smp diponegoro depok,school,Depok,-7.7603294,110.4402299,,OpenStreetMap Overpass,https://overpass-api.de/api/interpreter,,"subcategory=amenity:school; flags: direct=false, food=false, demand=true, support=false",osm,osm_only,osm_only,node,3585055169,2026-06-24T16:07:57.357772+00:00
OSM-0179,Indomaret,indomaret,retail,Mlati,-7.7807059,110.3610802,,OpenStreetMap Overpass,https://overpass-api.de/api/interpreter,,"subcategory=shop:convenience; flags: direct=false, food=false, demand=false, support=true; zone normalized from Depok/Mlati to Mlati",osm,osm_only,osm_only,node,3585103219,2026-06-24T16:08:05.739952+00:00
OSM-0180,Kupat Tahu,kupat tahu,restaurant,Depok,-7.8022544,110.3949412,,OpenStreetMap Overpass,https://overpass-api.de/api/interpreter,,"subcategory=amenity:restaurant; flags: direct=false, food=true, demand=false, support=false",osm,osm_only,osm_only,node,3600099385,2026-06-24T16:07:57.357772+00:00
OSM-0181,BlackBone Coffee,blackbone coffee,cafe,Depok,-7.7606603,110.3819646,,OpenStreetMap Overpass,https://overpass-api.de/api/interpreter,,"subcategory=amenity:cafe; flags: direct=false, food=true, demand=false, support=false; zone normalized from Depok/Mlati to Depok",osm,osm_only,osm_only,node,3621462268,2026-06-24T16:08:05.739952+00:00
OSM-0182,Amelia Hotel,amelia hotel,hotel,Depok,-7.7770418,110.3924836,,OpenStreetMap Overpass,https://overpass-api.de/api/interpreter,,"subcategory=tourism:hotel; flags: direct=false, food=false, demand=false, support=true",osm,osm_only,osm_only,node,3621485952,2026-06-24T16:07:57.357772+00:00
OSM-0183,Pasar Sehat Letusee,pasar sehat letusee,marketplace,Depok,-7.7770588,110.3924706,,OpenStreetMap Overpass,https://overpass-api.de/api/interpreter,,"subcategory=amenity:marketplace; flags: direct=false, food=false, demand=false, support=true",osm,osm_only,osm_only,node,3621485954,2026-06-24T16:07:57.357772+00:00
OSM-0184,Kiken Soup,kiken soup,restaurant,Depok,-7.7661431,110.3822925,,OpenStreetMap Overpass,https://overpass-api.de/api/interpreter,,"subcategory=amenity:restaurant; flags: direct=false, food=true, demand=false, support=false; zone normalized from Depok/Mlati to Depok",osm,osm_only,osm_only,node,3623677433,2026-06-24T16:08:05.739952+00:00
OSM-0185,Lebah Jus,lebah jus,cafe,Depok,-7.7653831,110.3818171,,OpenStreetMap Overpass,https://overpass-api.de/api/interpreter,,"subcategory=amenity:cafe; flags: direct=false, food=true, demand=false, support=false; zone normalized from Depok/Mlati to Depok",osm,osm_only,osm_only,node,3623677434,2026-06-24T16:08:05.739952+00:00
OSM-0186,Dapur Sambal,dapur sambal,restaurant,Depok,-7.8031767,110.3663228,,OpenStreetMap Overpass,https://overpass-api.de/api/interpreter,,"subcategory=amenity:restaurant; flags: direct=false, food=true, demand=false, support=false",osm,osm_only,osm_only,node,3630420120,2026-06-24T16:07:57.357772+00:00
OSM-0187,Kedai OAK,kedai oak,cafe,Depok,-7.7610845,110.4038467,,OpenStreetMap Overpass,https://overpass-api.de/api/interpreter,,"subcategory=amenity:cafe; flags: direct=false, food=true, demand=false, support=false",osm,osm_only,osm_only,node,3632597203,2026-06-24T16:07:57.357772+00:00
OSM-0188,Playground,playground,restaurant,Depok,-7.7909498,110.3931768,,OpenStreetMap Overpass,https://overpass-api.de/api/interpreter,,"subcategory=amenity:restaurant; flags: direct=false, food=true, demand=false, support=false",osm,osm_only,osm_only,node,3633799368,2026-06-24T16:07:57.357772+00:00
OSM-0189,Mushroom Resto,mushroom resto,restaurant,Depok,-7.7748157,110.4085139,,OpenStreetMap Overpass,https://overpass-api.de/api/interpreter,,"subcategory=amenity:restaurant; flags: direct=false, food=true, demand=false, support=false",osm,osm_only,osm_only,node,3633919835,2026-06-24T16:07:57.357772+00:00
OSM-0190,Rata-Rata,rata-rata,restaurant,Depok,-7.754106,110.3838813,,OpenStreetMap Overpass,https://overpass-api.de/api/interpreter,,"subcategory=amenity:restaurant; flags: direct=false, food=true, demand=false, support=false; zone normalized from Depok/Mlati to Depok",osm,osm_only,osm_only,node,3634352858,2026-06-24T16:08:05.739952+00:00
OSM-0191,Pasar Bantengan,pasar bantengan,marketplace,Depok,-7.802688,110.4122317,,OpenStreetMap Overpass,https://overpass-api.de/api/interpreter,,"subcategory=amenity:marketplace; flags: direct=false, food=false, demand=false, support=true",osm,osm_only,osm_only,node,3636307402,2026-06-24T16:07:57.357772+00:00
OSM-0192,Sushi Story,sushi story,restaurant,Depok,-7.7610968,110.3943996,,OpenStreetMap Overpass,https://overpass-api.de/api/interpreter,,"subcategory=amenity:restaurant; flags: direct=false, food=true, demand=false, support=false",osm,osm_only,osm_only,node,3636359382,2026-06-24T16:07:57.357772+00:00
OSM-0193,Mi casa es tu casa,mi casa es tu casa,restaurant,Mlati,-7.7905199,110.3640246,,OpenStreetMap Overpass,https://overpass-api.de/api/interpreter,,"subcategory=amenity:restaurant; flags: direct=false, food=true, demand=false, support=false; zone normalized from Depok/Mlati to Mlati",osm,osm_only,osm_only,node,3636570820,2026-06-24T16:08:05.739952+00:00
OSM-0194,Kedai Djamoer,kedai djamoer,restaurant,Depok,-7.7647075,110.3850382,,OpenStreetMap Overpass,https://overpass-api.de/api/interpreter,,"subcategory=amenity:restaurant; flags: direct=false, food=true, demand=false, support=false; zone normalized from Depok/Mlati to Depok",osm,osm_only,osm_only,node,3646422118,2026-06-24T16:08:05.739952+00:00
OSM-0195,Kedai Rakjat Djelata,kedai rakjat djelata,restaurant,Depok,-7.7930961,110.3780556,,OpenStreetMap Overpass,https://overpass-api.de/api/interpreter,,"subcategory=amenity:restaurant; flags: direct=false, food=true, demand=false, support=false; zone normalized from Depok/Mlati to Depok",osm,osm_only,osm_only,node,3658773685,2026-06-24T16:08:05.739952+00:00
OSM-0196,Bakso Pak Narto,bakso pak narto,restaurant,Depok,-7.7502185,110.38591,,OpenStreetMap Overpass,https://overpass-api.de/api/interpreter,,"subcategory=amenity:restaurant; flags: direct=false, food=true, demand=false, support=false; zone normalized from Depok/Mlati to Depok",osm,osm_only,osm_only,node,3675791128,2026-06-24T16:08:05.739952+00:00
OSM-0197,Villa Alicia,villa alicia,guest_house,Depok,-7.7676206,110.4172241,,OpenStreetMap Overpass,https://overpass-api.de/api/interpreter,,"subcategory=tourism:guest_house; flags: direct=false, food=false, demand=false, support=true",osm,osm_only,osm_only,node,3679274915,2026-06-24T16:07:57.357772+00:00
OSM-0198,Cafetaria d Zef,cafetaria d zef,cafe,Depok,-7.7677893,110.4171939,,OpenStreetMap Overpass,https://overpass-api.de/api/interpreter,,"subcategory=amenity:cafe; flags: direct=false, food=true, demand=false, support=false",osm,osm_only,osm_only,node,3680076005,2026-06-24T16:07:57.357772+00:00
OSM-0199,Mie Ayam Kita,mie ayam kita,restaurant,Depok,-7.774283,110.3933574,,OpenStreetMap Overpass,https://overpass-api.de/api/interpreter,,"subcategory=amenity:restaurant; flags: direct=false, food=true, demand=false, support=false",osm,osm_only,osm_only,node,3686643256,2026-06-24T16:07:57.357772+00:00
OSM-0200,Puri Pangeran Hotel,puri pangeran hotel,hotel,Depok,-7.8006644,110.3744796,,OpenStreetMap Overpass,https://overpass-api.de/api/interpreter,,"subcategory=tourism:hotel; flags: direct=false, food=false, demand=false, support=true",osm,osm_only,osm_only,node,3732339032,2026-06-24T16:07:57.357772+00:00
OSM-0201,L'cost seafood,l'cost seafood,restaurant,Depok,-7.7650056,110.3962061,,OpenStreetMap Overpass,https://overpass-api.de/api/interpreter,,"subcategory=amenity:restaurant; flags: direct=false, food=true, demand=false, support=false",osm,osm_only,osm_only,node,3760080628,2026-06-24T16:07:57.357772+00:00
OSM-0202,Susu Kedelai,susu kedelai,cafe,Mlati,-7.7816362,110.3625475,,OpenStreetMap Overpass,https://overpass-api.de/api/interpreter,,"subcategory=amenity:cafe; flags: direct=false, food=true, demand=false, support=false; zone normalized from Depok/Mlati to Mlati",osm,osm_only,osm_only,node,3760455764,2026-06-24T16:08:05.739952+00:00
OSM-0203,Burjo,burjo,restaurant,Depok,-7.7652397,110.3968363,,OpenStreetMap Overpass,https://overpass-api.de/api/interpreter,,"subcategory=amenity:restaurant; flags: direct=false, food=true, demand=false, support=false",osm,osm_only,osm_only,node,3760579394,2026-06-24T16:07:57.357772+00:00
OSM-0204,Forty eight Ice Blend,forty eight ice blend,cafe,Depok,-7.7636638,110.3950571,,OpenStreetMap Overpass,https://overpass-api.de/api/interpreter,,"subcategory=amenity:cafe; flags: direct=false, food=true, demand=false, support=false",osm,osm_only,osm_only,node,3765156963,2026-06-24T16:07:57.357772+00:00
OSM-0205,Grand Omah Sastro,grand omah sastro,hotel,Depok,-7.7741531,110.394319,,OpenStreetMap Overpass,https://overpass-api.de/api/interpreter,,"subcategory=tourism:hotel; flags: direct=false, food=false, demand=false, support=true",osm,osm_only,osm_only,node,3765156964,2026-06-24T16:07:57.357772+00:00
OSM-0206,Indomaret,indomaret,retail,Depok,-7.7675973,110.3959273,,OpenStreetMap Overpass,https://overpass-api.de/api/interpreter,,"subcategory=shop:convenience; flags: direct=false, food=false, demand=false, support=true",osm,osm_only,osm_only,node,3792507114,2026-06-24T16:07:57.357772+00:00
OSM-0207,Indochine Bistro,indochine bistro,restaurant,Depok,-7.7732136,110.4097948,,OpenStreetMap Overpass,https://overpass-api.de/api/interpreter,,"subcategory=amenity:restaurant; flags: direct=false, food=true, demand=false, support=false",osm,osm_only,osm_only,node,3832156436,2026-06-24T16:07:57.357772+00:00
OSM-0208,Bar Kitchen Go Rich,bar kitchen go rich,restaurant,Depok,-7.7624408,110.3955292,,OpenStreetMap Overpass,https://overpass-api.de/api/interpreter,,"subcategory=amenity:restaurant; flags: direct=false, food=true, demand=false, support=false",osm,osm_only,osm_only,node,3832166377,2026-06-24T16:07:57.357772+00:00
OSM-0209,Pasar Organik,pasar organik,marketplace,Depok,-7.7518673,110.4169244,,OpenStreetMap Overpass,https://overpass-api.de/api/interpreter,,"subcategory=amenity:marketplace; flags: direct=false, food=false, demand=false, support=true",osm,osm_only,osm_only,node,3832166389,2026-06-24T16:07:57.357772+00:00
OSM-0210,Penyetan Mang Sukri,penyetan mang sukri,restaurant,Depok,-7.7642669,110.3958274,,OpenStreetMap Overpass,https://overpass-api.de/api/interpreter,,"subcategory=amenity:restaurant; flags: direct=false, food=true, demand=false, support=false",osm,osm_only,osm_only,node,3832166390,2026-06-24T16:07:57.357772+00:00
OSM-0211,Loka loka,loka loka,restaurant,Depok,-7.7387383,110.3991772,,OpenStreetMap Overpass,https://overpass-api.de/api/interpreter,,"subcategory=amenity:restaurant; flags: direct=false, food=true, demand=false, support=false; zone normalized from Depok/Ngaglik Selatan to Depok",osm,osm_only,osm_only,node,3856942968,2026-06-24T16:09:35.619220+00:00
OSM-0212,Fortunate Coffee Jogja,fortunate coffee jogja,restaurant,Mlati,-7.7940577,110.361162,,OpenStreetMap Overpass,https://overpass-api.de/api/interpreter,,"subcategory=amenity:restaurant; flags: direct=false, food=true, demand=false, support=false; zone normalized from Depok/Mlati to Mlati",osm,osm_only,osm_only,node,3872990726,2026-06-24T16:08:05.739952+00:00
OSM-0213,Golden Fried Chicken,golden fried chicken,fast_food,Depok,-7.7675323,110.3959411,,OpenStreetMap Overpass,https://overpass-api.de/api/interpreter,,"subcategory=amenity:fast_food; flags: direct=false, food=true, demand=false, support=false",osm,osm_only,osm_only,node,3873061060,2026-06-24T16:07:57.357772+00:00
OSM-0214,Mister Burger,mister burger,fast_food,Depok,-7.7680322,110.3957486,,OpenStreetMap Overpass,https://overpass-api.de/api/interpreter,,"subcategory=amenity:fast_food; flags: direct=false, food=true, demand=false, support=false",osm,osm_only,osm_only,node,3873061061,2026-06-24T16:07:57.357772+00:00
OSM-0215,Warung,warung,retail,Depok,-7.7750942,110.3827497,,OpenStreetMap Overpass,https://overpass-api.de/api/interpreter,,"subcategory=shop:convenience; flags: direct=false, food=false, demand=false, support=true; zone normalized from Depok/Mlati to Depok",osm,osm_only,osm_only,node,3874348193,2026-06-24T16:08:05.739952+00:00
OSM-0216,Veganissimo (Pringwulung),veganissimo (pringwulung),restaurant,Depok,-7.7706739,110.3993232,,OpenStreetMap Overpass,https://overpass-api.de/api/interpreter,,"subcategory=amenity:restaurant; flags: direct=false, food=true, demand=false, support=false",osm,osm_only,osm_only,node,3876392454,2026-06-24T16:07:57.357772+00:00
OSM-0217,Hotel Asih,hotel asih,hotel,Depok,-7.776802,110.381828,,OpenStreetMap Overpass,https://overpass-api.de/api/interpreter,,"subcategory=tourism:hotel; flags: direct=false, food=false, demand=false, support=true; zone normalized from Depok/Mlati to Depok",osm,osm_only,osm_only,node,3884620633,2026-06-24T16:08:05.739952+00:00
OSM-0218,Hestek Kopi,hestek kopi,cafe,Depok,-7.7580522,110.381883,,OpenStreetMap Overpass,https://overpass-api.de/api/interpreter,,"subcategory=amenity:cafe; flags: direct=false, food=true, demand=false, support=false; zone normalized from Depok/Mlati to Depok",osm,osm_only,osm_only,node,3914446536,2026-06-24T16:08:05.739952+00:00
OSM-0219,Qimi Chinese Food,qimi chinese food,restaurant,Depok,-7.7618303,110.3942551,,OpenStreetMap Overpass,https://overpass-api.de/api/interpreter,,"subcategory=amenity:restaurant; flags: direct=false, food=true, demand=false, support=false",osm,osm_only,osm_only,node,3914446538,2026-06-24T16:07:57.357772+00:00
OSM-0220,Warung Kendi,warung kendi,restaurant,Depok,-7.7619838,110.39738,,OpenStreetMap Overpass,https://overpass-api.de/api/interpreter,,"subcategory=amenity:restaurant; flags: direct=false, food=true, demand=false, support=false",osm,osm_only,osm_only,node,3922989780,2026-06-24T16:07:57.357772+00:00
OSM-0221,Italian Pasta,italian pasta,restaurant,Depok,-7.7685731,110.3891976,,OpenStreetMap Overpass,https://overpass-api.de/api/interpreter,,"subcategory=amenity:restaurant; flags: direct=false, food=true, demand=false, support=false; zone normalized from Depok/Mlati to Depok",osm,osm_only,osm_only,node,3987578839,2026-06-24T16:08:05.739952+00:00
OSM-0222,Kedai Sedek Raos,kedai sedek raos,restaurant,Depok,-7.7617752,110.3938635,,OpenStreetMap Overpass,https://overpass-api.de/api/interpreter,,"subcategory=amenity:restaurant; flags: direct=false, food=true, demand=false, support=false",osm,osm_only,osm_only,node,3987578840,2026-06-24T16:07:57.357772+00:00
OSM-0223,Taj,taj,restaurant,Depok,-7.7832199,110.3848854,,OpenStreetMap Overpass,https://overpass-api.de/api/interpreter,,"subcategory=amenity:restaurant; flags: direct=false, food=true, demand=false, support=false; zone normalized from Depok/Mlati to Depok",osm,osm_only,osm_only,node,3987578842,2026-06-24T16:08:05.739952+00:00
OSM-0224,LOKAL Indonesia,lokal indonesia,restaurant,Depok,-7.7595166,110.3965908,,OpenStreetMap Overpass,https://overpass-api.de/api/interpreter,,"subcategory=amenity:restaurant; flags: direct=false, food=true, demand=false, support=false",osm,osm_only,osm_only,node,4002066027,2026-06-24T16:07:57.357772+00:00
OSM-0225,Songkhla Thai Restaurant,songkhla thai restaurant,restaurant,Mlati,-7.7529926,110.3812311,,OpenStreetMap Overpass,https://overpass-api.de/api/interpreter,,"subcategory=amenity:restaurant; flags: direct=false, food=true, demand=false, support=false; zone normalized from Depok/Mlati to Mlati",osm,osm_only,osm_only,node,4013846292,2026-06-24T16:08:05.739952+00:00
OSM-0226,Tjiptorini Jaya Hotel,tjiptorini jaya hotel,hotel,Depok,-7.7797378,110.4049191,,OpenStreetMap Overpass,https://overpass-api.de/api/interpreter,,"subcategory=tourism:hotel; flags: direct=false, food=false, demand=false, support=true",osm,osm_only,osm_only,node,4040128043,2026-06-24T16:07:57.357772+00:00
OSM-0227,Hero Supermarket,hero supermarket,retail,Mlati,-7.7929904,110.3661679,,OpenStreetMap Overpass,https://overpass-api.de/api/interpreter,,"subcategory=shop:supermarket; flags: direct=false, food=false, demand=false, support=true; zone normalized from Depok/Mlati to Mlati",osm,osm_only,osm_only,node,4069871628,2026-06-24T16:08:05.739952+00:00
OSM-0228,Sabana Homestay,sabana homestay,hotel,Depok,-7.7818456,110.3852788,,OpenStreetMap Overpass,https://overpass-api.de/api/interpreter,,"subcategory=tourism:hotel; flags: direct=false, food=false, demand=false, support=true; zone normalized from Depok/Mlati to Depok",osm,osm_only,osm_only,node,4113534818,2026-06-24T16:08:05.739952+00:00
OSM-0229,Indomaret,indomaret,retail,Depok,-7.7838225,110.4106768,,OpenStreetMap Overpass,https://overpass-api.de/api/interpreter,,"subcategory=shop:convenience; flags: direct=false, food=false, demand=false, support=true",osm,osm_only,osm_only,node,4146125388,2026-06-24T16:07:57.357772+00:00
OSM-0230,Warung Pak Kumis & Bu Gendut,warung pak kumis & bu gendut,restaurant,Depok,-7.7877965,110.3995747,,OpenStreetMap Overpass,https://overpass-api.de/api/interpreter,,"subcategory=amenity:restaurant; flags: direct=false, food=true, demand=false, support=false",osm,osm_only,osm_only,node,4146152129,2026-06-24T16:07:57.357772+00:00
OSM-0231,Ayam Geprek,ayam geprek,restaurant,Depok,-7.7876052,110.3995426,,OpenStreetMap Overpass,https://overpass-api.de/api/interpreter,,"subcategory=amenity:restaurant; flags: direct=false, food=true, demand=false, support=false",osm,osm_only,osm_only,node,4146152130,2026-06-24T16:07:57.357772+00:00
OSM-0232,Indomaret,indomaret,retail,Depok,-7.7864277,110.3996955,,OpenStreetMap Overpass,https://overpass-api.de/api/interpreter,,"subcategory=shop:convenience; flags: direct=false, food=false, demand=false, support=true",osm,osm_only,osm_only,node,4146152131,2026-06-24T16:07:57.357772+00:00
OSM-0233,Indomaret,indomaret,retail,Depok,-7.7955829,110.397842,,OpenStreetMap Overpass,https://overpass-api.de/api/interpreter,,"subcategory=shop:convenience; flags: direct=false, food=false, demand=false, support=true",osm,osm_only,osm_only,node,4146152132,2026-06-24T16:07:57.357772+00:00
OSM-0234,Warung Burjo,warung burjo,fast_food,Depok,-7.751272,110.4506477,,OpenStreetMap Overpass,https://overpass-api.de/api/interpreter,,"subcategory=amenity:fast_food; flags: direct=false, food=true, demand=false, support=false",osm,osm_only,osm_only,node,4146165985,2026-06-24T16:07:57.357772+00:00
OSM-0235,TK Purbasari,tk purbasari,school,Depok,-7.7507302,110.4509607,,OpenStreetMap Overpass,https://overpass-api.de/api/interpreter,,"subcategory=amenity:school; flags: direct=false, food=false, demand=true, support=false",osm,osm_only,osm_only,node,4146165986,2026-06-24T16:07:57.357772+00:00
OSM-0236,Waroeng Surya,waroeng surya,cafe,Depok,-7.8003872,110.3959924,,OpenStreetMap Overpass,https://overpass-api.de/api/interpreter,,"subcategory=amenity:cafe; flags: direct=false, food=true, demand=false, support=false",osm,osm_only,osm_only,node,4146167257,2026-06-24T16:07:57.357772+00:00
OSM-0237,,,cafe,Mlati,-7.7583798,110.3684407,,OpenStreetMap Overpass,https://overpass-api.de/api/interpreter,,"subcategory=amenity:cafe; flags: direct=false, food=true, demand=false, support=false; zone normalized from Depok/Mlati to Mlati",osm,osm_only,osm_only,node,4146176564,2026-06-24T16:08:05.739952+00:00
OSM-0238,Mooi's Kitchen,mooi's kitchen,cafe,Mlati,-7.7803677,110.3733949,,OpenStreetMap Overpass,https://overpass-api.de/api/interpreter,,"subcategory=amenity:cafe; flags: direct=false, food=true, demand=false, support=false; zone normalized from Depok/Mlati to Mlati",osm,osm_only,osm_only,node,4162538289,2026-06-24T16:08:05.739952+00:00
OSM-0239,PADI UKDI,padi ukdi,school,Mlati,-7.7527011,110.3814091,,OpenStreetMap Overpass,https://overpass-api.de/api/interpreter,,"subcategory=amenity:school; flags: direct=false, food=false, demand=true, support=false; zone normalized from Depok/Mlati to Mlati",osm,osm_only,osm_only,node,4162538389,2026-06-24T16:08:05.739952+00:00
OSM-0240,Panties Pizza,panties pizza,restaurant,Depok,-7.7639821,110.393419,,OpenStreetMap Overpass,https://overpass-api.de/api/interpreter,,"subcategory=amenity:restaurant; flags: direct=false, food=true, demand=false, support=false",osm,osm_only,osm_only,node,4162538490,2026-06-24T16:07:57.357772+00:00
OSM-0241,Lotek Pandega Putri,lotek pandega putri,restaurant,Mlati,-7.7549858,110.3800531,,OpenStreetMap Overpass,https://overpass-api.de/api/interpreter,,"subcategory=amenity:restaurant; flags: direct=false, food=true, demand=false, support=false; zone normalized from Depok/Mlati to Mlati",osm,osm_only,osm_only,node,4164237790,2026-06-24T16:08:05.739952+00:00
OSM-0242,Burjo Maharasa,burjo maharasa,restaurant,Depok,-7.7546781,110.3836072,,OpenStreetMap Overpass,https://overpass-api.de/api/interpreter,,"subcategory=amenity:restaurant; flags: direct=false, food=true, demand=false, support=false; zone normalized from Depok/Mlati to Depok",osm,osm_only,osm_only,node,4164247296,2026-06-24T16:08:05.739952+00:00
OSM-0243,Yogyakarta BnB,yogyakarta bnb,guest_house,Depok,-7.7966198,110.362985,,OpenStreetMap Overpass,https://overpass-api.de/api/interpreter,,"subcategory=tourism:guest_house; flags: direct=false, food=false, demand=false, support=true",osm,osm_only,osm_only,node,4168500297,2026-06-24T16:07:57.357772+00:00
OSM-0244,Andrea Hotel,andrea hotel,hostel,Mlati,-7.7903714,110.3639164,,OpenStreetMap Overpass,https://overpass-api.de/api/interpreter,,"subcategory=tourism:hostel; flags: direct=false, food=false, demand=false, support=true; zone normalized from Depok/Mlati to Mlati",osm,osm_only,osm_only,node,4183414489,2026-06-24T16:08:05.739952+00:00
OSM-0245,Dixie Easy Dining,dixie easy dining,restaurant,Depok,-7.7699341,110.3905494,,OpenStreetMap Overpass,https://overpass-api.de/api/interpreter,,"subcategory=amenity:restaurant; flags: direct=false, food=true, demand=false, support=false",osm,osm_only,osm_only,node,4192972803,2026-06-24T16:07:57.357772+00:00
OSM-0246,Loving Hut,loving hut,restaurant,Depok,-7.7763111,110.3898886,,OpenStreetMap Overpass,https://overpass-api.de/api/interpreter,,"subcategory=amenity:restaurant; flags: direct=false, food=true, demand=false, support=false; zone normalized from Depok/Mlati to Depok",osm,osm_only,osm_only,node,4193428489,2026-06-24T16:08:05.739952+00:00
OSM-0247,Pier 14 Coffee,pier 14 coffee,cafe,Mlati,-7.7869399,110.361719,,OpenStreetMap Overpass,https://overpass-api.de/api/interpreter,,"subcategory=amenity:cafe; flags: direct=false, food=true, demand=false, support=false; zone normalized from Depok/Mlati to Mlati",osm,osm_only,osm_only,node,4210616498,2026-06-24T16:08:05.739952+00:00
OSM-0248,EDU,edu,hostel,Depok,-7.7993491,110.3562715,,OpenStreetMap Overpass,https://overpass-api.de/api/interpreter,,"subcategory=tourism:hostel; flags: direct=false, food=false, demand=false, support=true",osm,osm_only,osm_only,node,4212103389,2026-06-24T16:07:57.357772+00:00
OSM-0249,Silla Resto,silla resto,restaurant,Depok,-7.7575166,110.3863837,,OpenStreetMap Overpass,https://overpass-api.de/api/interpreter,,"subcategory=amenity:restaurant; flags: direct=false, food=true, demand=false, support=false; zone normalized from Depok/Mlati to Depok",osm,osm_only,osm_only,node,4215310292,2026-06-24T16:08:05.739952+00:00
OSM-0250,"Laura's backpacker 523, nr 2","laura's backpacker 523, nr 2",hostel,Mlati,-7.790796,110.3707421,,OpenStreetMap Overpass,https://overpass-api.de/api/interpreter,,"subcategory=tourism:hostel; flags: direct=false, food=false, demand=false, support=true; zone normalized from Depok/Mlati to Mlati",osm,osm_only,osm_only,node,4217400845,2026-06-24T16:08:05.739952+00:00
OSM-0251,Bunk Bed and Breakfast Hostel,bunk bed and breakfast hostel,hostel,Depok,-7.8028105,110.3565181,,OpenStreetMap Overpass,https://overpass-api.de/api/interpreter,,"subcategory=tourism:hostel; flags: direct=false, food=false, demand=false, support=true",osm,osm_only,osm_only,node,4226633916,2026-06-24T16:07:57.357772+00:00
OSM-0252,Grosir Beras Padi Mas,grosir beras padi mas,retail,Ngaglik Selatan,-7.7185863,110.4042727,,OpenStreetMap Overpass,https://overpass-api.de/api/interpreter,,"subcategory=shop:supermarket; flags: direct=false, food=false, demand=false, support=true; zone normalized from Depok/Ngaglik Selatan to Ngaglik Selatan",osm,osm_only,osm_only,node,4242256791,2026-06-24T16:09:35.619220+00:00
OSM-0253,Peacock Coffee,peacock coffee,cafe,Mlati,-7.7434003,110.3740773,,OpenStreetMap Overpass,https://overpass-api.de/api/interpreter,,"subcategory=amenity:cafe; flags: direct=false, food=true, demand=false, support=false; zone normalized from Depok/Mlati/Ngaglik Selatan to Mlati",osm,osm_only,osm_only,node,4245432589,2026-06-24T16:09:35.619220+00:00
OSM-0254,Alfamart,alfamart,retail,Ngaglik Selatan,-7.7282307,110.3984754,,OpenStreetMap Overpass,https://overpass-api.de/api/interpreter,,"subcategory=shop:convenience; flags: direct=false, food=false, demand=false, support=true; zone normalized from Depok/Ngaglik Selatan to Ngaglik Selatan",osm,osm_only,osm_only,node,4267436089,2026-06-24T16:09:35.619220+00:00
OSM-0255,Hotel Panorama,hotel panorama,hotel,Depok,-7.8020279,110.3787707,,OpenStreetMap Overpass,https://overpass-api.de/api/interpreter,,"subcategory=tourism:hotel; flags: direct=false, food=false, demand=false, support=true",osm,osm_only,osm_only,node,4278281582,2026-06-24T16:07:57.357772+00:00
OSM-0256,Pak Gembul,pak gembul,restaurant,Depok,-7.8010808,110.3616132,,OpenStreetMap Overpass,https://overpass-api.de/api/interpreter,,"subcategory=amenity:restaurant; flags: direct=false, food=true, demand=false, support=false",osm,osm_only,osm_only,node,4290034496,2026-06-24T16:07:57.357772+00:00
OSM-0257,De Laxston Hotel by Quinn's,de laxston hotel by quinn's,hotel,Depok,-7.7830255,110.3871283,,OpenStreetMap Overpass,https://overpass-api.de/api/interpreter,,"subcategory=tourism:hotel; flags: direct=false, food=false, demand=false, support=true; zone normalized from Depok/Mlati to Depok",osm,osm_only,osm_only,node,4292814790,2026-06-24T16:08:05.739952+00:00
OSM-0258,Civil Engineering UGM,civil engineering ugm,school,Mlati,-7.7645087,110.3733743,,OpenStreetMap Overpass,https://overpass-api.de/api/interpreter,,"subcategory=amenity:school; flags: direct=false, food=false, demand=true, support=false; zone normalized from Depok/Mlati to Mlati",osm,osm_only,osm_only,node,4297198893,2026-06-24T16:08:05.739952+00:00
OSM-0259,Kedai Seblak Phiim-Phiim,kedai seblak phiim-phiim,restaurant,Depok,-7.775158,110.408726,,OpenStreetMap Overpass,https://overpass-api.de/api/interpreter,,"subcategory=amenity:restaurant; flags: direct=false, food=true, demand=false, support=false",osm,osm_only,osm_only,node,4319346929,2026-06-24T16:07:57.357772+00:00
OSM-0260,Warung Bakmi Pak Waluyo Jogja,warung bakmi pak waluyo jogja,restaurant,Depok,-7.769441,110.4054191,,OpenStreetMap Overpass,https://overpass-api.de/api/interpreter,,"subcategory=amenity:restaurant; flags: direct=false, food=true, demand=false, support=false",osm,osm_only,osm_only,node,4319346930,2026-06-24T16:07:57.357772+00:00
OSM-0261,Cemara 7 (Seven Cemara),cemara 7 (seven cemara),retail,Depok,-7.7552544,110.3828848,,OpenStreetMap Overpass,https://overpass-api.de/api/interpreter,,"subcategory=shop:supermarket; flags: direct=false, food=false, demand=false, support=true; zone normalized from Depok/Mlati to Depok",osm,osm_only,osm_only,node,4319347010,2026-06-24T16:08:05.739952+00:00
OSM-0262,Soto Lamongan Cak Mangku,soto lamongan cak mangku,restaurant,Depok,-7.8021704,110.393007,,OpenStreetMap Overpass,https://overpass-api.de/api/interpreter,,"subcategory=amenity:restaurant; flags: direct=false, food=true, demand=false, support=false",osm,osm_only,osm_only,node,4328694295,2026-06-24T16:07:57.357772+00:00
OSM-0263,Ketoprak Jakarta,ketoprak jakarta,fast_food,Depok,-7.7991378,110.3621344,,OpenStreetMap Overpass,https://overpass-api.de/api/interpreter,,"subcategory=amenity:fast_food; flags: direct=false, food=true, demand=false, support=false",osm,osm_only,osm_only,node,4328777590,2026-06-24T16:07:57.357772+00:00
OSM-0264,Bakso Soto Spesial Pak Ateng,bakso soto spesial pak ateng,restaurant,Depok,-7.7664344,110.3814572,,OpenStreetMap Overpass,https://overpass-api.de/api/interpreter,,"subcategory=amenity:restaurant; flags: direct=false, food=true, demand=false, support=false; zone normalized from Depok/Mlati to Depok",osm,osm_only,osm_only,node,4328807089,2026-06-24T16:08:05.739952+00:00
OSM-0265,Olive Chicken,olive chicken,fast_food,Depok,-7.7604815,110.3819761,,OpenStreetMap Overpass,https://overpass-api.de/api/interpreter,,"subcategory=amenity:fast_food; flags: direct=false, food=true, demand=false, support=false; zone normalized from Depok/Mlati to Depok",osm,osm_only,osm_only,node,4331941414,2026-06-24T16:08:05.739952+00:00
OSM-0266,Tahu Tek Jumbo,tahu tek jumbo,restaurant,Mlati,-7.7912204,110.3573118,,OpenStreetMap Overpass,https://overpass-api.de/api/interpreter,,"subcategory=amenity:restaurant; flags: direct=false, food=true, demand=false, support=false; zone normalized from Depok/Mlati to Mlati",osm,osm_only,osm_only,node,4331953297,2026-06-24T16:08:05.739952+00:00
OSM-0267,1001Malam,1001malam,hotel,Mlati,-7.790704,110.3641061,,OpenStreetMap Overpass,https://overpass-api.de/api/interpreter,,"subcategory=tourism:hotel; flags: direct=false, food=false, demand=false, support=true; zone normalized from Depok/Mlati to Mlati",osm,osm_only,osm_only,node,4361980601,2026-06-24T16:08:05.739952+00:00
OSM-0268,Gudeg Yu Jum,gudeg yu jum,restaurant,Depok,-7.7631452,110.3801303,,OpenStreetMap Overpass,https://overpass-api.de/api/interpreter,,"subcategory=amenity:restaurant; flags: direct=false, food=true, demand=false, support=false; zone normalized from Depok/Mlati to Depok",osm,osm_only,osm_only,node,4362074695,2026-06-24T16:08:05.739952+00:00
OSM-0269,Indomaret,indomaret,retail,Depok,-7.8008855,110.3730838,,OpenStreetMap Overpass,https://overpass-api.de/api/interpreter,,"subcategory=shop:convenience; flags: direct=false, food=false, demand=false, support=true",osm,osm_only,osm_only,node,4362107101,2026-06-24T16:07:57.357772+00:00
OSM-0270,Ayam Goreng Pak Wage,ayam goreng pak wage,restaurant,Depok,-7.7663583,110.3823167,,OpenStreetMap Overpass,https://overpass-api.de/api/interpreter,,"subcategory=amenity:restaurant; flags: direct=false, food=true, demand=false, support=false; zone normalized from Depok/Mlati to Depok",osm,osm_only,osm_only,node,4362107102,2026-06-24T16:08:05.739952+00:00
OSM-0271,Alfamart,alfamart,retail,Depok,-7.7930885,110.3733814,,OpenStreetMap Overpass,https://overpass-api.de/api/interpreter,,"subcategory=shop:convenience; flags: direct=false, food=false, demand=false, support=true; zone normalized from Depok/Mlati to Depok",osm,osm_only,osm_only,node,4362119191,2026-06-24T16:08:05.739952+00:00
OSM-0272,Indomaret,indomaret,retail,Depok,-7.7956017,110.3727972,,OpenStreetMap Overpass,https://overpass-api.de/api/interpreter,,"subcategory=shop:convenience; flags: direct=false, food=false, demand=false, support=true",osm,osm_only,osm_only,node,4362119294,2026-06-24T16:07:57.357772+00:00
OSM-0273,Wakeup Homestay,wakeup homestay,hostel,Mlati,-7.7912429,110.3619542,,OpenStreetMap Overpass,https://overpass-api.de/api/interpreter,,"subcategory=tourism:hostel; flags: direct=false, food=false, demand=false, support=true; zone normalized from Depok/Mlati to Mlati",osm,osm_only,osm_only,node,4364472392,2026-06-24T16:08:05.739952+00:00
OSM-0274,Tea Factory,tea factory,cafe,Mlati,-7.7864131,110.362908,,OpenStreetMap Overpass,https://overpass-api.de/api/interpreter,,"subcategory=amenity:cafe; flags: direct=false, food=true, demand=false, support=false; zone normalized from Depok/Mlati to Mlati",osm,osm_only,osm_only,node,4406412789,2026-06-24T16:08:05.739952+00:00
OSM-0275,Angkringan KR Yogyakarta,angkringan kr yogyakarta,cafe,Mlati,-7.785619,110.3668128,,OpenStreetMap Overpass,https://overpass-api.de/api/interpreter,,"subcategory=amenity:cafe; flags: direct=false, food=true, demand=false, support=false; zone normalized from Depok/Mlati to Mlati",osm,osm_only,osm_only,node,4414655896,2026-06-24T16:08:05.739952+00:00
OSM-0276,Twins,twins,retail,Mlati,-7.7894556,110.3629575,,OpenStreetMap Overpass,https://overpass-api.de/api/interpreter,,"subcategory=shop:supermarket; flags: direct=false, food=false, demand=false, support=true; zone normalized from Depok/Mlati to Mlati",osm,osm_only,osm_only,node,4416176893,2026-06-24T16:08:05.739952+00:00
OSM-0277,,,fast_food,Depok,-7.7641559,110.4108374,,OpenStreetMap Overpass,https://overpass-api.de/api/interpreter,,"subcategory=amenity:fast_food; flags: direct=false, food=true, demand=false, support=false",osm,osm_only,osm_only,node,4416951599,2026-06-24T16:07:57.357772+00:00
OSM-0278,Manuk Londho,manuk londho,restaurant,Depok,-7.7918948,110.3719224,,OpenStreetMap Overpass,https://overpass-api.de/api/interpreter,,"subcategory=amenity:restaurant; flags: direct=false, food=true, demand=false, support=false; zone normalized from Depok/Mlati to Depok",osm,osm_only,osm_only,node,4423162839,2026-06-24T16:08:05.739952+00:00
OSM-0279,Tio Ciu Seafood & Chinese Food,tio ciu seafood & chinese food,restaurant,Mlati,-7.7827313,110.3703171,,OpenStreetMap Overpass,https://overpass-api.de/api/interpreter,,"subcategory=amenity:restaurant; flags: direct=false, food=true, demand=false, support=false; zone normalized from Depok/Mlati to Mlati",osm,osm_only,osm_only,node,4424583591,2026-06-24T16:08:05.739952+00:00
OSM-0280,Batik,batik,restaurant,Mlati,-7.7916636,110.365052,,OpenStreetMap Overpass,https://overpass-api.de/api/interpreter,,"subcategory=amenity:restaurant; flags: direct=false, food=true, demand=false, support=false; zone normalized from Depok/Mlati to Mlati",osm,osm_only,osm_only,node,4424590790,2026-06-24T16:08:05.739952+00:00
OSM-0281,Sintawang Resto,sintawang resto,restaurant,Mlati,-7.7820808,110.3607339,,OpenStreetMap Overpass,https://overpass-api.de/api/interpreter,,"subcategory=amenity:restaurant; flags: direct=false, food=true, demand=false, support=false; zone normalized from Depok/Mlati to Mlati",osm,osm_only,osm_only,node,4424600989,2026-06-24T16:08:05.739952+00:00
OSM-0282,Kost Orange,kost orange,guest_house,Depok,-7.7793452,110.379242,,OpenStreetMap Overpass,https://overpass-api.de/api/interpreter,,"subcategory=tourism:guest_house; flags: direct=false, food=false, demand=false, support=true; zone normalized from Depok/Mlati to Depok",osm,osm_only,osm_only,node,4431678389,2026-06-24T16:08:05.739952+00:00
OSM-0283,Mie Ayam Palembang Afui,mie ayam palembang afui,restaurant,Depok,-7.7813679,110.4161415,,OpenStreetMap Overpass,https://overpass-api.de/api/interpreter,,"subcategory=amenity:restaurant; flags: direct=false, food=true, demand=false, support=false",osm,osm_only,osm_only,node,4434082291,2026-06-24T16:07:57.357772+00:00
OSM-0284,Hotel Sekar Ayu,hotel sekar ayu,guest_house,Mlati,-7.7889685,110.3709409,,OpenStreetMap Overpass,https://overpass-api.de/api/interpreter,,"subcategory=tourism:guest_house; flags: direct=false, food=false, demand=false, support=true; zone normalized from Depok/Mlati to Mlati",osm,osm_only,osm_only,node,4438722097,2026-06-24T16:08:05.739952+00:00
OSM-0285,bakso pak min,bakso pak min,fast_food,Depok,-7.7650459,110.3789913,,OpenStreetMap Overpass,https://overpass-api.de/api/interpreter,,"subcategory=amenity:fast_food; flags: direct=false, food=true, demand=false, support=false; zone normalized from Depok/Mlati to Depok",osm,osm_only,osm_only,node,4454416690,2026-06-24T16:08:05.739952+00:00
OSM-0286,Silol Cafe,silol cafe,cafe,Depok,-7.7843162,110.3746544,,OpenStreetMap Overpass,https://overpass-api.de/api/interpreter,,"subcategory=amenity:cafe; flags: direct=false, food=true, demand=false, support=false; zone normalized from Depok/Mlati to Depok",osm,osm_only,osm_only,node,4460180999,2026-06-24T16:08:05.739952+00:00
OSM-0287,,,guest_house,Depok,-7.754467,110.4241455,,OpenStreetMap Overpass,https://overpass-api.de/api/interpreter,,"subcategory=tourism:guest_house; flags: direct=false, food=false, demand=false, support=true",osm,osm_only,osm_only,node,4505436489,2026-06-24T16:07:57.357772+00:00
OSM-0288,La-capila,la-capila,restaurant,Depok,-7.7887367,110.3724948,,OpenStreetMap Overpass,https://overpass-api.de/api/interpreter,,"subcategory=amenity:restaurant; flags: direct=false, food=true, demand=false, support=false; zone normalized from Depok/Mlati to Depok",osm,osm_only,osm_only,node,4516268491,2026-06-24T16:08:05.739952+00:00
OSM-0289,Lotus Losmen,lotus losmen,guest_house,Mlati,-7.7911289,110.3637267,,OpenStreetMap Overpass,https://overpass-api.de/api/interpreter,,"subcategory=tourism:guest_house; flags: direct=false, food=false, demand=false, support=true; zone normalized from Depok/Mlati to Mlati",osm,osm_only,osm_only,node,4528072890,2026-06-24T16:08:05.739952+00:00
OSM-0290,Students Dormitory,students dormitory,hostel,Depok,-7.7813215,110.3987209,,OpenStreetMap Overpass,https://overpass-api.de/api/interpreter,,"subcategory=tourism:hostel; flags: direct=false, food=false, demand=false, support=true",osm,osm_only,osm_only,node,4547470989,2026-06-24T16:07:57.357772+00:00
OSM-0291,Andrea hotel,andrea hotel,hotel,Mlati,-7.790417,110.364036,,OpenStreetMap Overpass,https://overpass-api.de/api/interpreter,,"subcategory=tourism:hotel; flags: direct=false, food=false, demand=false, support=true; zone normalized from Depok/Mlati to Mlati",osm,osm_only,osm_only,node,4562432090,2026-06-24T16:08:05.739952+00:00
